city,state,latitude,longitude,reverse_address,walkscore,bikescore,transitscore
albertville,alabama,34.2675937,-86.20886689999999,"124 S Broad St, Albertville, AL 35950, USA",70,56,
alexander city,alabama,32.944012,-85.9538532,"63 Court Square, Alexander City, AL 35010, USA",65,63,
anniston,alabama,33.6598257,-85.8316318,"1200 Gurnee Ave, Anniston, AL 36201, USA",67,60,
bessemer,alabama,33.4017766,-86.954437,"1800 3rd Ave N, Bessemer, AL 35020, USA",70,59,
birmingham,alabama,33.5185892,-86.8103567,"595 19th St N, Birmingham, AL 35203, USA",85,64,56
daphne,alabama,30.6035255,-87.9036047,"706 Belrose Ave, Daphne, AL 36526, USA",52,74,
fairhope,alabama,30.5229719,-87.9033261,"22765, Fairhope, AL 36532, United States",78,67,
helena,alabama,33.296224,-86.8436004,"4093 Helena Rd, Helena, AL 35080, USA",34,36,
madison,alabama,34.6992579,-86.74833180000002,"318 Church St, Madison, AL 35758, USA",48,38,
mobile,alabama,30.6953657,-88.0398912,"1 St Louis St, Mobile, AL 36602, USA",52,57,
montgomery,alabama,32.3792233,-86.3077368,"103 N Perry St, Montgomery, AL 36104, USA",69,62,
opelika,alabama,32.6454116,-85.3782795,"1409 S 9th St, Opelika, AL 36801, USA",56,57,
pelham,alabama,33.2856687,-86.8099885,"3183 Pelham Pkwy, Pelham, AL 35124, USA",29,17,
phenix city,alabama,32.4709761,-85.0007653,"511 13th St, Phenix City, AL 36867, USA",67,49,
selma,alabama,32.4073589,-87.02110069999999,"803-971 Alabama Ave, Selma, AL 36701, USA",74,49,
sylacauga,alabama,33.1731716,-86.2516406,"21-99 W 4th St, Sylacauga, AL 35150, USA",64,58,
talladega,alabama,33.4359416,-86.1058048,"111 N Spring St, Talladega, AL 35160, USA",61,59,
troy,alabama,31.8087678,-85.969951,"221 E Academy St, Troy, AL 36081, USA",61,48,
trussville,alabama,33.6198251,-86.60887559999999,"106 N Chalkville Rd, Trussville, AL 35173, USA",,,
tuscaloosa,alabama,33.2098407,-87.56917349999999,"2436 University Blvd, Tuscaloosa, AL 35401, USA",72,62,
homer,alaska,59.64100000000001,-151.546,"135 Sterling Hwy, Homer, AK 99603, USA",49,27,
apache junction,arizona,33.4150485,-111.5495777,"183 Apache Trail, Apache Junction, AZ 85120, USA",54,61,
avondale,arizona,33.4355977,-112.3496021,"14 E Western Ave, Avondale, AZ 85323, USA",78,65,
camp verde town,arizona,34.5636358,-111.8543178,"396 S Main St, Camp Verde, AZ 86322, USA",57,54,
chandler,arizona,33.3061605,-111.8412502,"7 E Chandler Blvd, Chandler, AZ 85225, USA",84,65,38
chino valley town,arizona,34.7575227,-112.4537809,"845 AZ-89, Chino Valley, AZ 86323, USA",33,44,
clarkdale town,arizona,34.7711319,-112.0579367,"909 Main St, Clarkdale, AZ 86324, USA",21,25,
cottonwood,arizona,34.7391876,-112.0098791,"14 S Main St, Cottonwood, AZ 86326, USA",62,68,
eagar town,arizona,34.1111581,-109.291475,"16 W Central Ave, Eagar, AZ 85925, USA",40,49,
el mirage,arizona,33.6130942,-112.3246042,"14217 N El Mirage Rd, El Mirage, AZ 85335, USA",66,64,
flagstaff,arizona,35.1982836,-111.651302,"122 US-180, Flagstaff, AZ 86001, USA",91,99,
florence town,arizona,33.0314508,-111.3873431,"28677 Center St, Florence, AZ 85132, USA",65,62,
fredonia town,arizona,36.945542,-112.5265889,"66 Pratt St, Fredonia, AZ 86022, USA",27,41,
gilbert town,arizona,33.3528264,-111.789027,"133 N Gilbert Rd, Gilbert, AZ 85234, USA",63,71,33
glendale,arizona,33.5386523,-112.1859866,"5900 W Glendale Ave, Glendale, AZ 85301, USA",85,70,40
goodyear,arizona,33.4353394,-112.3576567,"101 W Western Ave, Avondale, AZ 85323, USA",53,63,
huachuca city town,arizona,31.6278703,-110.3339678,"302 1st St, Huachuca City, AZ 85616, USA",,,
kearny town,arizona,33.0570085,-110.9106656,"401 Danbury Rd, Kearny, AZ 85137, USA",26,26,
kingman,arizona,35.189443,-114.0530065,"111-199 N 4th St, Kingman, AZ 86401, USA",51,51,
lake havasu city,arizona,34.483901,-114.3224548,"101 Mescal Loop, Lake Havasu City, AZ 86403, USA",43,44,
marana town,arizona,32.436381,-111.2224422,"12601 N Whitney Ln, Marana, AZ 85653, USA",10,50,
mesa,arizona,33.4151843,-111.8314724,"4 E Main St, Mesa, AZ 85201, USA",74,88,55
paradise valley town,arizona,33.5311541,-111.9426452,"6501-6699 N Invergordon Rd, Paradise Valley, AZ 85253, USA",23,49,
patagonia town,arizona,31.5395378,-110.7561963,"384 Naugle Ave, Patagonia, AZ 85624, USA",43,49,
payson town,arizona,34.2308684,-111.3251355,"100 W Main St, Payson, AZ 85541, USA",71,58,
peoria,arizona,33.5805955,-112.2373779,"83rd Av & Washington St, Peoria, AZ 85345, USA",72,53,36
phoenix,arizona,33.4483771,-112.0740373,"22 W Washington St, Phoenix, AZ 85004, USA",87,63,65
pima town,arizona,32.8961755,-109.8275815,"2 N Main St, Pima, AZ 85543, USA",25,42,
pimaco two,arizona,31.95056,-110.45194,"16711 S Whetstone Ave, Benson, AZ 85602, USA",,,
pine,arizona,34.3844739,-111.4551407,"6119 AZ-260, Pine, AZ 85544, USA",43,42,
pinetop-lakeside town,arizona,34.1425438,-109.9603843,"503 W Summer Haven Ln, Lakeside, AZ 85929, USA",33,37,
prescott,arizona,34.5400242,-112.4685025,"141 S Cortez St, Prescott, AZ 86303, USA",88,50,
prescott valley town,arizona,34.6100243,-112.315721,"8500 Spouse Dr, Prescott Valley, AZ 86314, USA",45,52,
quartzsite town,arizona,33.6639137,-114.2299486,"775 W Main St, Quartzsite, AZ 85346, USA",44,47,
safford,arizona,32.8339546,-109.70758,"515 S 1st Ave, Safford, AZ 85546, USA",47,53,
sahuarita town,arizona,31.9575818,-110.955646,"1130 E Sahuarita Rd, Sahuarita, AZ 85629, USA",13,35,
san luis,arizona,32.4869996,-114.7821796,"503 Main St, San Luis, AZ 85349, USA",76,58,
scottsdale,arizona,33.4941704,-111.9260519,"4017 N Scottsdale Rd, Scottsdale, AZ 85251, USA",75,87,55
sedona,arizona,34.8697395,-111.7609896,"247 AZ-89A, Sedona, AZ 86336, USA",41,23,
show low,arizona,34.2542084,-110.0298327,"1152 US-60, Show Low, AZ 85901, USA",50,48,
sierra vista,arizona,31.5455001,-110.2772856,"2031 E Tiffany Pl, Sierra Vista, AZ 85635, USA",28,49,
springerville town,arizona,34.1333799,-109.2859196,"5 S Mountain Ave, Springerville, AZ 85938, USA",51,51,
surprise,arizona,33.6292337,-112.3679279,"16000 N Civic Center Plaza, Surprise, AZ 85374, USA",10,38,
tempe,arizona,33.4255104,-111.9400054,"501 S Mill Ave, Tempe, AZ 85281, USA",83,93,70
thatcher town,arizona,32.8492323,-109.7592479,"3544 W Main St, Thatcher, AZ 85552, USA",34,47,
tolleson,arizona,33.4500425,-112.259321,"9257 W Van Buren St, Tolleson, AZ 85353, USA",69,56,
tombstone,arizona,31.7128683,-110.0675764,"330 E Allen St, Tombstone, AZ 85638, USA",,,
tucson,arizona,32.2226066,-110.9747108,"255 W Alameda St, Tucson, AZ 85701, USA",78,99,71
wellton hills,arizona,32.624404,-114.1394764,"21182 Cleator Ave, Wellton, AZ 85356, USA",0,31,
wellton town,arizona,32.6728256,-114.1468821,"28673 Los Angeles Ave, Wellton, AZ 85356, USA",,,
wickenburg town,arizona,33.9697664,-112.7301882,"131 E Apache St, Wickenburg, AZ 85390, USA",65,75,
willcox,arizona,32.2528519,-109.8320124,"125 N Haskell Ave, Willcox, AZ 85643, USA",53,52,
williams,arizona,35.24945659999999,-112.1910031,"417 W Historic Rte 66, Williams, AZ 86046, USA",70,59,
yuma,arizona,32.6926512,-114.6276916,"647-699 W 19th St, Yuma, AZ 85364, USA",70,86,
bella vista town,arkansas,36.481464,-94.2732642,"1 Hatcher Dr, Bella Vista, AR 72715, USA",7,10,
bentonville,arkansas,36.3728538,-94.2088172,"100 S Main St, Bentonville, AR 72712, USA",,,
blytheville,arkansas,35.9272953,-89.9189753,"646 E Main St, Blytheville, AR 72315, USA",55,57,
el dorado,arkansas,33.20763,-92.6662674,"469599 Barton St, El Dorado, AR 71730, USA",67,60,
hot springs,arkansas,34.5037004,-93.0551795,"Central Ave & W Grand St, Hot Springs, AR 71901, USA",80,59,
jacksonville,arkansas,34.8662005,-92.1101458,"102 veterans Cir, Jacksonville, AR 72076, USA",76,59,
little rock,arkansas,34.7464809,-92.2895948,"112-172 State Capitol, Little Rock, AR 72201, USA",57,52,38
maumelle,arkansas,34.8667565,-92.4043219,"1100 Edgewood Dr, Maumelle, AR 72113, USA",27,53,
mountain home,arkansas,36.3353949,-92.381346,"409 E 6th St, Mountain Home, AR 72653, USA",64,56,
north little rock,arkansas,34.769536,-92.2670941,"1608 Main St, North Little Rock, AR 72114, USA",48,54,28
pine bluff,arkansas,34.2284312,-92.0031955,"129 S Main St, Pine Bluff, AR 71601, USA",56,48,
springdale,arkansas,36.18674420000001,-94.1288141,"208-298 E Johnson Ave, Springdale, AR 72764, USA",72,54,
texarkana,arkansas,33.4417915,-94.0376881,"1924 County Ave, Texarkana, AR 71854, USA",47,52,
west memphis,arkansas,35.1464797,-90.1845388,"101 E Broadway Blvd, West Memphis, AR 72301, USA",59,59,
adelanto,california,34.5827699,-117.409215,"11715 Lee Ave, Adelanto, CA 92301, USA",49,49,
agoura hills,california,34.1533395,-118.7616764,"29170 Quail Run Dr, Agoura Hills, CA 91301, USA",70,39,
alameda,california,37.7652065,-122.2416355,"Santa Clara Av:Park St, Alameda, CA 94501, USA",98,87,49
albany,california,37.88687,-122.2977475,"999 San Pablo Ave, Albany, CA 94706, USA",91,96,
alhambra,california,34.095287,-118.1270146,"Main / Garfield, Alhambra, CA 91801, USA",94,59,
aliso viejo,california,33.5684605,-117.7262981,"36 Journey, Aliso Viejo, CA 92656, USA",78,74,
alturas,california,41.4871146,-120.5424555,"346 N Main St, Alturas, CA 96101, USA",53,54,
american canyon,california,38.1749178,-122.2608044,"100 Joan Dr, American Canyon, CA 94503, USA",32,47,
anaheim,california,33.8365932,-117.9143012,"255 Anaheim Blvd, Anaheim, CA 92805, USA",89,64,48
anderson,california,40.448208,-122.2977815,"2765-2799 CA-273, Anderson, CA 96007, USA",62,63,
angels,california,38.0677832,-120.5385299,"1349 S Main St, Angels Camp, CA 95222, USA",35,18,
antioch,california,38.0049214,-121.805789,"1715 E 18th St, Antioch, CA 94509, USA",81,62,
apple valley town,california,34.5008311,-117.1858759,"21910 Outer Hwy 18 N, Apple Valley, CA 92307, USA",39,48,32
arcadia,california,34.1397292,-118.0353449,"100 W Huntington Dr, Arcadia, CA 91007, USA",81,58,
arcata,california,40.8665166,-124.0828396,"700 D St, Arcata, CA 95521, USA",90,90,
arroyo grande,california,35.1185868,-120.5907252,"113 S Rena St, Arroyo Grande, CA 93420, USA",75,61,
artesia,california,33.8658484,-118.0831212,"18163 Pioneer Blvd, Artesia, CA 90701, USA",86,64,
arvin,california,35.2017986,-118.833105,"5701 Franklin St, Arvin, CA 93203, USA",49,53,
atascadero,california,35.4894169,-120.6707255,"5940 El Camino Real, Atascadero, CA 93422, USA",77,57,
atherton town,california,37.4613272,-122.197743,"3295 El Camino Real, Atherton, CA 94027, United States",41,60,
atwater,california,37.3477174,-120.609084,"1298 Cedar Ave, Atwater, CA 95301, USA",79,58,
auburn,california,38.8965654,-121.0768901,"101 Maple St, Auburn, CA 95603, USA",70,44,
avalon,california,33.3428193,-118.3282279,"301 Beacon St, Avalon, CA 90704, USA",79,52,
avenal,california,36.0041223,-120.1290272,"700 Skyline Blvd, Avenal, CA 93204, USA",77,58,
azusa,california,34.1336186,-117.9075627,"88 Auspicious Dr, Azusa, CA 91702, USA",82,62,
bakersfield,california,35.3732921,-119.0187125,"1401-1499 Truxtun Ave, Bakersfield, CA 93301, USA",77,62,51
baldwin park,california,34.0852868,-117.9608978,"3972 Maine Ave, Baldwin Park, CA 91706, USA",87,58,
banning,california,33.9255713,-116.8764103,"6 N San Gorgonio Ave, Banning, CA 92220, USA",79,55,
barstow,california,34.8957957,-117.0172826,"315 Melissa Ave, Barstow, CA 92311, USA",65,44,
beaumont,california,33.9294606,-116.977248,"380 E 6th St, Beaumont, CA 92223, USA",77,59,
bell gardens,california,33.9652918,-118.1514588,"6345 Florence Ave, Bell Gardens, CA 90201, USA",,,
bellflower,california,33.8816818,-118.1170117,"17053 Bellflower Bike Trail, Bellflower, CA 90706, USA",70,80,
belmont,california,37.5202145,-122.2758008,"1025 Belmont Station underpass, Belmont, CA 94002, USA",86,75,
belvedere,california,37.8727044,-122.4644171,"105 Acacia Ave, Belvedere Tiburon, CA 94920, USA",55,31,
benicia,california,38.049365,-122.1585777,"632 1st St, Benicia, CA 94510, USA",67,74,
berkeley,california,37.8715926,-122.272747,"University Ave. at Martin Luther King Jr. Way, Berkeley, CA 94704, USA",96,99,70
beverly hills,california,34.0736204,-118.4003563,"486-498 N Rexford Dr, Beverly Hills, CA 90210, USA",91,62,63
big bear city,california,34.2611183,-116.84503,"112 CA-38, Big Bear, CA 92314, USA",50,45,
big bear lake,california,34.2438963,-116.9114215,"40824 Big Bear Blvd, Big Bear Lake, CA 92315, USA",63,65,
biggs,california,39.4123876,-121.7127513,"2997 8th St, Biggs, CA 95917, USA",42,50,
bishop,california,37.3614238,-118.3996636,"487 W Line St, Bishop, CA 93514, USA",72,71,
blythe,california,33.6177725,-114.5882607,"Chanslorway & 7th St., Blythe, CA 92225, USA",42,46,
brawley,california,32.9786566,-115.530267,"111 N 8th St, Brawley, CA 92227, USA",80,61,
brea,california,33.916475,-117.9002918,"Brea-Imperial, Brea, CA 92821, USA",90,85,
brentwood,california,37.931868,-121.6957863,"Brentwood Blvd & Oak St, Brentwood, CA 94513, USA",88,62,
brisbane,california,37.6807661,-122.3999715,"500 San Bruno Ave, Brisbane, CA 94005, USA",71,38,
buellton,california,34.613597,-120.1926505,"51 E Hwy 246, Buellton, CA 93427, USA",66,56,
buena park,california,33.8674044,-117.9981387,"Beach-Auto Center Drive, Buena Park, CA 90621, USA",69,63,
burbank,california,34.1808392,-118.3089661,"Burbank airport, Burbank, CA 91502, USA",89,67,
burlingame,california,37.5778696,-122.34809,"1401 Burlingame Ave, Burlingame, CA 94010, USA",96,84,
calabasas,california,34.1367208,-118.6614809,"3715 Cll Jazmin, Calabasas, CA 91302, USA",17,7,
calexico,california,32.6789476,-115.4988834,"1011 S Imperial Ave, Calexico, CA 92231, USA",83,60,
california city,california,35.125801,-117.9859038,"7987 California City Blvd, California City, CA 93505, USA",45,53,
calimesa,california,34.0039039,-117.0619755,"996 County Line Rd, Calimesa, CA 92320, USA",61,54,
calistoga,california,38.5787965,-122.5797054,"PO Box 302, Calistoga, CA 94515, United States",84,75,
camarillo,california,34.2163937,-119.0376023,"2402 Ventura Blvd, Camarillo, CA 93010, USA",87,62,
campbell,california,37.2871651,-121.9499568,"486 E Campbell Ave, Campbell, CA 95008, USA",91,84,48
capitola,california,36.9752283,-121.953293,"501 Capitola Ave, Capitola, CA 95010, USA",85,84,
carlsbad,california,33.1580933,-117.3505939,"3016 Carlsbad Blvd, Carlsbad, CA 92008, USA",88,75,35
carmel valley village,california,36.4799024,-121.7327931,"3 Village Dr, Carmel Valley, CA 93924, USA",54,42,
carmel-by-the-sea,california,36.5552386,-121.9232879,"800 Ocean Ave, Carmel-By-The-Sea, CA 93923, USA",,,
carpinteria,california,34.39888380000001,-119.5184564,"991 Linden Ave, Carpinteria, CA 93013, USA",90,71,
carson,california,33.8316745,-118.281693,"Carson St at Moneta Av, Carson, CA 90745, USA",68,58,
cathedral city,california,33.7805388,-116.4668036,"68895 Perez Road Units 1-4, Cathedral City, CA 92234, United States",81,52,
ceres,california,37.5949316,-120.9577098,"2029 E Whitmore Ave, Ceres, CA 95307, USA",75,62,21
cerritos,california,33.8583483,-118.0647871,"12506 South St, Cerritos, CA 90703, USA",57,57,
chico,california,39.7284944,-121.8374777,"3199 plummer drive, Chico, CA 95928, USA",93,73,
chino,california,34.0122346,-117.688944,"13271 Central Ave, Chino, CA 91710, USA",76,56,
chino hills,california,33.9898188,-117.7325848,"3316 Eucalyptus Ave, Chino Hills, CA 91709, USA",42,43,
chowchilla,california,37.1229997,-120.2601754,"200 Robertson Blvd, Chowchilla, CA 93610, USA",58,59,
chula vista,california,32.6400541,-117.0841955,"302 4th Ave, Chula Vista, CA 91910, USA",80,63,50
citrus heights,california,38.7071247,-121.2810611,"7754 Mariposa Ave, Citrus Heights, CA 95610, USA",47,57,
claremont,california,34.0966764,-117.7197785,"315 N Indian Hill Blvd, Claremont, CA 91711, USA",79,70,
clayton,california,37.9410341,-121.9357925,"1030 Diablo St, Clayton, CA 94517, USA",53,49,
clearlake,california,38.9582307,-122.6263728,"15427 Duncan Ave, Clearlake, CA 95422, USA",39,34,
cloverdale,california,38.8054624,-123.0172227,"108 N Cloverdale Blvd, Cloverdale, CA 95425, USA",74,60,
clovis,california,36.8252277,-119.7029194,"508 4th St, Clovis, CA 93612, USA",73,79,
coachella,california,33.6803003,-116.173894,"85900 Grapefruit Blvd, Coachella, CA 92236, USA",64,55,
coalinga,california,36.139678,-120.3601496,"100-198 Coalinga Plaza, Coalinga, CA 93210, USA",84,59,
colton,california,34.0739016,-117.3136547,"816 Colton Ave, Colton, CA 92324, USA",79,76,
colusa,california,39.2143343,-122.0094175,"Serving Your Area, Colusa, CA 95932, United States",75,59,
compton,california,33.8958492,-118.2200712,"298 E Compton Blvd, Compton, CA 90221, USA",86,70,
concord,california,37.9779776,-122.0310733,"2349 Willow Pass Rd, Concord, CA 94520, USA",94,63,53
corcoran,california,36.098007,-119.5604015,"1025 Whitley Ave, Corcoran, CA 93212, USA",74,58,
corning,california,39.9276572,-122.1791556,"1081 Solano St, Corning, CA 96021, USA",68,59,
corona,california,33.8752935,-117.5664384,"114 E 6th St, Corona, CA 92879, USA",83,59,40
coronado,california,32.6858853,-117.1830891,"827 Tolita Ave, Coronado, CA 92118, USA",86,73,
costa mesa,california,33.6412156,-117.9188221,"1209 Harbor Blvd, Costa Mesa, CA 92627, USA",93,68,45
cotati,california,38.3293416,-122.7096666,"7885A Old Redwood Hwy, Cotati, CA 94931, USA",78,72,
covina,california,34.0900091,-117.8903397,"413 N Citrus Ave, Covina, CA 91723, USA",84,59,
crescent city,california,41.7557501,-124.2025913,"701 9th St, Crescent City, CA 95531, USA",78,69,
culver city,california,34.0211224,-118.3964665,"9900 Culver Blvd, Culver City, CA 90232, USA",96,78,
cupertino,california,37.3229978,-122.0321823,"20451 Stevens Creek Blvd, Cupertino, CA 95014, USA",83,82,
cypress,california,33.8169366,-118.0368507,"Ball-Walker, Cypress, CA 90630, USA",74,80,
daly city,california,37.6879241,-122.4702079,"95 Washington St, Daly City, CA 94014, USA",83,45,
dana point,california,33.4672256,-117.6981014,"34181 Pacific Coast Hwy, Dana Point, CA 92629, USA",90,73,
danville town,california,37.8215929,-121.9999606,"381-395 Hartz Ave, Danville, CA 94526, USA",86,85,
davis,california,38.5449065,-121.7405167,"615 3rd St, Davis, CA 95616, USA",77,100,44
del mar,california,32.9594891,-117.2653146,"1500 Camino Del Mar, Del Mar, CA 92014, USA",62,59,
del rey oaks,california,36.5932934,-121.8349515,"Via Verde / Canyon Del Rey, Del Rey Oaks, CA 93940, USA",19,12,
delano,california,35.7688425,-119.2470536,"998 S High St, Delano, CA 93215, USA",85,59,
desert hot springs,california,33.961124,-116.5016784,"12021 Palm Dr, Desert Hot Springs, CA 92240, USA",70,53,
diamond bar,california,34.0286226,-117.8103367,"504 N Diamond Bar Blvd, Diamond Bar, CA 91765, USA",58,25,
dinuba,california,36.5432837,-119.3870656,"401 E Tulare St, Dinuba, CA 93618, USA",86,62,
dixon,california,38.4454641,-121.8232958,"131 W A St, Dixon, CA 95620, USA",76,57,
dos palos,california,36.9860582,-120.6265722,"1427 Center Ave, Dos Palos, CA 93620, USA",70,57,
downey,california,33.9401088,-118.1331593,"Firestone / Downey, Downey, CA 90241, USA",89,59,
duarte,california,34.1394513,-117.9772873,"Huntington Dr and Buena Vista St E, Duarte, CA 91010, USA",78,65,
dublin,california,37.7021521,-121.9357918,"7007 San Ramon Rd, Dublin, CA 94568, USA",74,67,
dunsmuir,california,41.2082089,-122.2719529,"5957 Sacramento Ave, Dunsmuir, CA 96025, USA",55,31,
el cajon,california,32.7947731,-116.9625269,"124 S Magnolia Ave, El Cajon, CA 92020, USA",88,62,48
el centro,california,32.792,-115.5630514,"950 W State St, El Centro, CA 92243, USA",82,62,
el cerrito,california,37.9161326,-122.310765,"3060 El Cerrito Plaza #331, El Cerrito, CA 94530, United States",,,
el monte,california,34.0686206,-118.0275667,"3400 Peck Rd, El Monte, CA 91731, USA",81,60,
el segundo,california,33.9191799,-118.4164652,"113 W Grand Ave, El Segundo, CA 90245, USA",88,55,
elk grove,california,38.4087993,-121.3716178,"8896 Elk Grove Blvd, Elk Grove, CA 95624, USA",83,70,
emeryville,california,37.831316,-122.2852473,"1301-1333 Park Ave, Emeryville, CA 94608, USA",85,91,
encinitas,california,33.0369867,-117.2919818,"1163 S Coast Hwy 101, Encinitas, CA 92024, USA",82,48,
escalon,california,37.7974273,-120.9966033,"1404 Main St, Escalon, CA 95320, USA",73,57,
escondido,california,33.1192068,-117.086421,"970 W Valley Parkway #1006, Escondido, CA 92025, United States",42,36,31
etna,california,41.4568065,-122.8947551,"450 Pig Alley, Etna, CA 96027, USA",43,49,
eureka,california,40.8020712,-124.1636729,"503 H St, Eureka, CA 95501, USA",89,93,
exeter,california,36.2960613,-119.1420517,"201 N F St, Exeter, CA 93221, USA",79,64,
fairfax town,california,37.9871454,-122.5888686,"POB 74, Fairfax, CA 94930, United States",85,60,
fairfield,california,38.2491956,-122.0405151,"600 Texas St, Fairfield, CA 94533, USA",65,68,
farmersville,california,36.2977283,-119.2067767,"161 E Visalia Rd, Farmersville, CA 93223, USA",52,59,
ferndale,california,40.5762406,-124.2639441,"394 Main St, Fortuna, CA 95540, USA",60,55,
fillmore,california,34.3991639,-118.918154,"348 A St, Fillmore, CA 93015, USA",75,72,
firebaugh,california,36.8588376,-120.4560072,"1101 O St, Firebaugh, CA 93622, USA",74,59,
folsom,california,38.6779591,-121.1760583,"600-698 Sutter St, Folsom, CA 95630, USA",79,74,
fontana,california,34.0922335,-117.435048,"16932 Merrill Ave, Fontana, CA 92335, USA",82,60,53
fort bragg,california,39.445723,-123.8052935,"125 E Laurel St, Fort Bragg, CA 95437, USA",88,72,
fort jones,california,41.6076387,-122.8403099,"29 Sterling St, Fort Jones, CA 96032, USA",41,26,
fortuna,california,40.5981867,-124.1572756,"926 Main St, Fortuna, CA 95540, USA",73,63,
fountain valley,california,33.7090212,-117.9544069,"Brookhurst-Slater, Fountain Valley, CA 92708, USA",63,64,
fowler,california,36.6305058,-119.6784697,"207 E Merced St, Fowler, CA 93625, USA",78,58,
fremont,california,37.5482697,-121.9885719,"4025 Mowry Ave, Fremont, CA 94538, USA",82,75,47
fresno,california,36.7377981,-119.7871247,"2323 Mariposa St, Fresno, CA 93721, USA",88,83,54
fullerton,california,33.8703645,-117.9242123,"162-100 El Camino Real, Fullerton, CA 92832, USA",94,60,49
galt,california,38.2546373,-121.2999485,"814 A St, Galt, CA 95632, USA",82,58,
garden grove,california,33.7742692,-117.9379952,"12999 S Euclid St, Garden Grove, CA 92843, USA",76,58,33
gardena,california,33.8883487,-118.3089624,"Redondo Beach Bl & Western Ave, Gardena, CA 90247, USA",89,61,
gilroy,california,37.0057816,-121.5682751,"7353 Monterey Rd, Gilroy, CA 95020, USA",78,88,
glendale,california,34.1425078,-118.255075,"100 E Colorado St, Glendale, CA 91204, USA",95,63,62
glendora,california,34.1361187,-117.865339,"100 N Glendora Ave, Glendora, CA 91741, USA",84,62,
goleta,california,34.4358294,-119.8276389,"5842 Hollister Ave, Goleta, CA 93117, USA",72,87,
gonzales,california,36.5066295,-121.4443806,"338 Alta St, Gonzales, CA 93926, USA",70,57,
grand terrace,california,34.0339031,-117.3136544,"22483 Barton Rd, Grand Terrace, CA 92313, USA",57,55,
grass valley,california,39.2190608,-121.0610606,"125 E Main St, Grass Valley, CA 95945, USA",88,48,
greenfield,california,36.3207998,-121.2438138,"201 El Camino Real, Greenfield, CA 93927, USA",76,58,
gridley,california,39.3637773,-121.6935833,"460 Washington St, Gridley, CA 95948, USA",82,60,
grover beach,california,35.1216424,-120.6212821,"835 W Grand Ave, Grover Beach, CA 93433, USA",86,59,
guadalupe,california,34.971644,-120.5718363,"4589 10th St, Guadalupe, CA 93434, USA",61,58,
gustine,california,37.2577171,-120.9988154,"403 3rd Ave, Gustine, CA 95322, USA",66,60,
hanford,california,36.3274502,-119.6456844,"219 N Douty St, Hanford, CA 93230, USA",92,62,
hawaiian gardens,california,33.8314045,-118.0728424,"7065001033, Hawaiian Gardens, CA 90716, United States",84,71,
hawthorne,california,33.9164032,-118.3525748,"El Segundo Bl & Hawthorne Bl, Hawthorne, CA 90250, USA",87,67,
hayward,california,37.6688205,-122.0807964,"22898 CA-185, Hayward, CA 94541, USA",90,67,
healdsburg,california,38.6104658,-122.8691609,"122 Matheson St, Healdsburg, CA 95448, USA",89,71,
hemet,california,33.7475203,-116.9719684,"172-100 S Inez St, Hemet, CA 92543, USA",72,65,
hercules,california,38.0171441,-122.2885808,"2039 Railroad Ave, Hercules, CA 94547, USA",24,40,
hermosa beach,california,33.8622366,-118.3995194,"205 Pier Ste 103-B, Hermosa Beach, CA 90254, United States",95,72,
hesperia,california,34.4263886,-117.3008784,"9646 Hesperia Rd, Hesperia, CA 92345, USA",57,47,
highland,california,34.1283442,-117.2086513,"27265 Pacific St, Highland, CA 92346, USA",50,46,
hollister,california,36.8524545,-121.4016021,"401 San Benito St, Hollister, CA 95023, USA",88,61,23
holtville,california,32.8111612,-115.3802643,"101 W 5th St, Holtville, CA 92250, USA",68,61,
hughson,california,37.6027244,-120.8664811,"7448 Fox Rd, Hughson, CA 95326, USA",55,50,
huntington beach,california,33.6594835,-117.9988026,"310 Orange Ave, Huntington Beach, CA 92648, USA",87,73,37
huntington park,california,33.9816812,-118.2250725,"Gage / Pacific, Huntington Park, CA 90255, USA",97,64,61
huron,california,36.2027308,-120.1029177,"15799 9th St, Huron, CA 93234, USA",64,55,
imperial,california,32.8475528,-115.5694391,"115 E Barioni Blvd, Imperial, CA 92251, USA",57,57,
imperial beach,california,32.5839444,-117.1130849,"Palm Av & Emory St, Imperial Beach, CA 91932, USA",84,73,
indian wells,california,33.717631,-116.3407549,"75682 Painted Desert Dr, Indian Wells, CA 92210, USA",7,57,
indio,california,33.7205771,-116.2155619,"83100 Indio Blvd, Indio, CA 92201, USA",70,66,
inglewood,california,33.9616801,-118.3531311,"202 E Manchester Blvd, Inglewood, CA 90301, USA",92,61,54
ione,california,38.3526912,-120.9327177,"22 CA-104, Ione, CA 95640, USA",59,55,
irvine,california,33.6845673,-117.8265049,"Harvard-Alton, Irvine, CA, USA",60,82,39
jackson,california,38.3488023,-120.7741018,"39 Main St, Jackson, CA 95642, USA",77,40,
kerman,california,36.72355719999999,-120.059879,"756 S Madera Ave, Kerman, CA 93630, USA",76,58,
king city,california,36.2127439,-121.1260287,"231 Broadway St, King City, CA 93930, USA",81,59,
kingsburg,california,36.5138398,-119.5540175,"1496 California St, Kingsburg, CA 93631, USA",84,63,
la habra,california,33.9318591,-117.946137,"110 W La Habra Blvd, La Habra, CA 90631, USA",83,65,
la mesa,california,32.7678287,-117.0230839,"8118 University Ave, La Mesa, CA 91942, USA",87,54,
la mirada,california,33.9172357,-118.0120086,"12333 Imperial Hwy, Whittier, CA 90604, USA",73,72,
la palma,california,33.8463218,-118.0461393,"5013 La Palma Ave, La Palma, CA 90623, USA",69,76,
la puente,california,34.0200114,-117.9495083,"15955 Main St, La Puente, CA 91744, USA",77,55,
la quinta,california,33.6633573,-116.3100095,"53035 Avenida Herrera, La Quinta, CA 92253, USA",22,37,
la verne,california,34.1008426,-117.7678355,"2350 E St, La Verne, CA 91750, USA",71,61,
lafayette,california,37.8857582,-122.1180201,"872 Moraga Rd, Lafayette, CA 94549, USA",74,58,
laguna beach,california,33.5427189,-117.7853568,"211 CA-1, Laguna Beach, CA 92651, USA",93,47,33
laguna hills,california,33.5916433,-117.6986604,"Paseo De Valencia-Alicia, Laguna Hills, CA 92653, USA",71,50,
laguna niguel,california,33.5236744,-117.7149438,"30250 Crown Valley Pkwy, Laguna Niguel, CA 92677, USA",77,73,
laguna woods,california,33.6101702,-117.7251162,"El Toro-Moulton, Laguna Woods, CA 92637, USA",57,60,
lake elsinore,california,33.6680772,-117.3272615,"104 N Main St, Lake Elsinore, CA 92530, USA",53,34,
lake forest,california,33.6469437,-117.6861023,"Lake Forest-Trabuco, Lake Forest, CA 92630, USA",69,58,
lakeport,california,39.0429506,-122.9158293,"175 2nd St, Lakeport, CA 95453, USA",72,59,
lakewood,california,33.8536269,-118.1339563,"5247 Clark Ave, Lakewood, CA 90712, USA",78,63,
lancaster,california,34.6867846,-118.1541632,"1304 W Ave J, Lancaster, CA 93534, USA",60,56,
lawndale,california,33.887237,-118.3525744,"Manhattan Beach / Hawthorne, Lawndale, CA 90260, USA",83,63,
lemon grove,california,32.7425516,-117.0314172,"7771 Broadway, Lemon Grove, CA 91945, USA",88,61,
lemoore,california,36.3007835,-119.7829107,"153 C St, Lemoore, CA 93245, USA",82,61,
lincoln,california,38.891565,-121.2930079,"436 G St, Lincoln, CA 95648, USA",80,70,
lindsay,california,36.2030064,-119.08816,"246 E Honolulu St, Lindsay, CA 93247, USA",69,59,
livermore,california,37.6818745,-121.7680088,"2788 S Livermore Ave, Livermore, CA 94550, USA",95,83,
livingston,california,37.3868826,-120.7235329,"344 Main St, Livingston, CA 95334, USA",77,61,
lodi,california,38.1341477,-121.2722194,"1 E Pine St, Lodi, CA 95240, USA",93,63,
loma linda,california,34.0483474,-117.2611527,"Unnamed Road, Loma Linda, CA 92354, United States",51,59,
lomita,california,33.7922392,-118.3150722,"25501 Eshelman Ave, Lomita, CA 90717, USA",81,73,
lompoc,california,34.6391501,-120.4579409,"101 N H St, Lompoc, CA 93436, USA",89,70,
long beach,california,33.7700504,-118.1937395,"249299 Pacific Avenue, Long Beach, CA 90802, USA",97,85,
los alamitos,california,33.8032009,-118.0718894,"Katella-Los Alamitos, Los Alamitos, CA 90720, USA",81,69,
los altos,california,37.3852183,-122.1141298,"San Antonio & Almond, Los Altos, CA 94022, USA",72,85,
los angeles,california,34.0522342,-118.2436849,"106 W 1st St, Los Angeles, CA 90012, USA",93,85,100
los banos,california,37.0582786,-120.8499151,"1135 6th St, Los Banos, CA 93635, USA",85,61,
los gatos town,california,37.2358078,-121.9623751,"16006 Los Gatos Blvd, Los Gatos, CA 95032, USA",80,85,
lynwood,california,33.930293,-118.2114603,"11171 Long Beach Blvd, Lynwood, CA 90262, USA",89,63,
madera,california,36.9613356,-120.0607176,"100 N Gateway Dr, Madera, CA 93637, USA",88,64,
malibu,california,34.0259216,-118.7797571,"27807 CA-1, Malibu, CA 90265, USA",20,22,
mammoth lakes town,california,37.648546,-118.972079,"3372 Main St, Mammoth Lakes, CA 93546, USA",62,65,
manhattan beach,california,33.8847361,-118.4109089,"1125 Manhattan Ave, Manhattan Beach, CA 90266, USA",89,64,
manteca,california,37.7974273,-121.2160526,"127 E Yosemite Ave, Manteca, CA 95336, USA",89,81,
marina,california,36.68440289999999,-121.802173,"3100 Del Monte Blvd, Marina, CA 93933, USA",73,85,
martinez,california,38.0193657,-122.1341321,"651 Pine St, Martinez, CA 94553, USA",69,82,
marysville,california,39.1457253,-121.5913547,"1001-1025 State Hwy 20, Marysville, CA 95901, USA",89,64,
maywood,california,33.9866807,-118.185349,"5900 Atlantic Blvd, Maywood, CA 90270, USA",89,63,
mendota,california,36.7535611,-120.3815574,"719 Quince St, Mendota, CA 93640, USA",62,57,
menifee,california,33.6971468,-117.185294,"27234 Pinehurst Rd, Sun City, CA 92586, USA",12,33,
menlo park,california,37.4529598,-122.1817252,"1001 El Camino Real, Menlo Park, CA 94025, USA",92,97,
merced,california,37.3021632,-120.4829677,"1731 Canal St, Merced, CA 95340, USA",83,70,
mill valley,california,37.9060368,-122.5449763,"87 E Blithedale Ave, Mill Valley, CA 94941, USA",73,51,
milpitas,california,37.4323341,-121.8995741,"419 CA-237, Milpitas, CA 95035, USA",69,76,
mission viejo,california,33.5968913,-117.6581562,"27000-27060 La Paz Rd, Mission Viejo, CA 92692, USA",76,70,
modesto,california,37.63909719999999,-120.9968782,"781 11th St, Modesto, CA 95354, USA",81,63,55
monrovia,california,34.1442616,-118.0019482,"137 W Walnut Ave, Monrovia, CA 91016, USA",87,58,
montague,california,41.7281985,-122.5278007,"100 S 11th St, Montague, CA 96064, USA",36,44,
montclair,california,34.0775104,-117.6897776,"Central @ San Bernardino Sb Fs, Montclair, CA 91763, USA",76,59,
montebello,california,34.0165053,-118.1137535,"1301-1411 W Harding Ave, Montebello, CA 90640, USA",84,55,
monterey,california,36.6002378,-121.8946761,"140 W Franklin St, Monterey, CA 93940, USA",87,83,
monterey park,california,34.0625106,-118.1228476,"Garvey / Garfield, Monterey Park, CA, USA",92,63,
moorpark,california,34.285558,-118.8820414,"15 E High St, Moorpark, CA 93021, USA",62,57,
moraga town,california,37.8349263,-122.1296871,"1400 Moraga Way, Moraga, CA 94556, USA",60,67,
moreno valley,california,33.9424658,-117.2296717,"24805 Hemlock Ave, Moreno Valley, CA 92557, USA",63,49,35
morgan hill,california,37.1305012,-121.6543901,"17600 Monterey Rd, Morgan Hill, CA 95037, USA",72,84,
morro bay,california,35.3659445,-120.8499924,"Main St and, Morro Bay Blvd, Morro Bay, CA 93442, United States",83,58,
mount shasta,california,41.3098746,-122.3105666,"418 S Mt Shasta Blvd, Mt Shasta, CA 96067, USA",70,48,
mountain view,california,37.3860517,-122.0838511,"790 W El Camino Real, Mountain View, CA 94040, USA",85,92,53
murrieta,california,33.5539143,-117.2139232,"24792 Washington Ave, Murrieta, CA 92562, USA",61,50,
napa,california,38.2975381,-122.286865,"853 Coombs St, Napa, CA 94559, USA",87,86,
national city,california,32.6781085,-117.0991967,"999-701 I Ave, National City, CA 91950, USA",87,54,
needles,california,34.8480597,-114.6141315,"1701 Needles Hwy, Needles, CA 92363, USA",35,44,
nevada city,california,39.2615606,-121.0160594,"107 Sacramento St, Nevada City, CA 95959, USA",63,33,
newark,california,37.5296593,-122.0402399,"7541 Thornton Ave, Newark, CA 94560, USA",47,53,
newman,california,37.3138267,-121.0207614,"1459 N St, Newman, CA 95360, USA",77,60,
newport beach,california,33.6188829,-117.9298493,"3600 Newport Blvd, Newport Beach, CA 92663, USA",83,68,
norco,california,33.9311257,-117.548661,"1281 Fifth St, Norco, CA 92860, USA",31,38,
norwalk,california,33.9022367,-118.081733,"1182 Rosecrans Ave, Norwalk, CA 90650, USA",83,61,42
novato,california,38.1074198,-122.5697032,"997 Grant Ave, Novato, CA 94945, USA",88,77,
oakdale,california,37.7665947,-120.8471545,"325a CA-108, Oakdale, CA 95361, USA",87,61,
oakland,california,37.8043637,-122.2711137,"1395 Broadway, Oakland, CA 94612, USA",99,91,88
oakley,california,37.9974219,-121.7124536,"3617 Main St, Oakley, CA 94561, USA",57,59,
oceanside,california,33.1958696,-117.3794834,"500 Mission Ave, Oceanside, CA 92054, USA",96,66,52
ojai,california,34.4480495,-119.242889,"423 E Ojai Ave, Ojai, CA 93023, USA",80,75,
ontario,california,34.0633443,-117.6508876,"100 N Euclid Ave, Ontario, CA 91762, USA",83,60,36
orange,california,33.7879139,-117.8531007,"1 Plaza Square, Orange, CA 92866, USA",89,63,45
orange cove,california,36.624394,-119.3137301,"711 Park Blvd, Orange Cove, CA 93646, USA",75,64,
orinda,california,37.8771476,-122.1796888,"93 Moraga Way, Orinda, CA 94563, USA",61,40,
orland,california,39.7473803,-122.1963748,"510 Walker St, Orland, CA 95963, USA",81,59,
oroville,california,39.5137752,-121.556359,"1919 Montgomery St, Oroville, CA 95965, USA",70,73,
oxnard,california,34.1975048,-119.1770516,"108 E 5th St, Oxnard, CA 93030, USA",92,63,
pacific grove,california,36.6177374,-121.9166215,"485 Pine Ave, Pacific Grove, CA 93950, USA",89,67,
pacifica,california,37.6138253,-122.4869194,"160 Reina Del Mar Ave, Pacifica, CA 94044, USA",51,46,
palm desert,california,33.7222445,-116.3744556,"73950 Alessandro Dr, Palm Desert, CA 92260, USA",65,59,
palm springs,california,33.8302961,-116.5452921,"201 E Alejo Rd, Palm Springs, CA 92262, USA",59,62,39
palmdale,california,34.5794343,-118.1164613,"700 Sierra Hwy, Palmdale, CA 93550, USA",79,64,
palo alto,california,37.4418834,-122.1430195,"668 Coleridge Ave, Palo Alto, CA 94301, USA",51,78,30
paradise,california,39.7596061,-121.6219177,"765 Elliott Rd, Paradise, CA 95969, USA",61,71,
paramount,california,33.8894598,-118.1597911,"15754 Paramount Blvd, Paramount, CA 90723, USA",85,61,
parlier,california,36.6116174,-119.5270734,"660 Fresno St, Parlier, CA 93648, USA",65,58,
pasadena,california,34.1477849,-118.1445155,"279 E Holly St, Pasadena, CA 91101, USA",93,75,
patterson,california,37.4716001,-121.129656,"10 S 3rd St, Patterson, CA 95363, USA",81,61,
perris,california,33.7825194,-117.2286478,"359-325 S D St, Perris, CA 92570, USA",83,56,
petaluma,california,38.232417,-122.6366524,"201 Petaluma Blvd S, Petaluma, CA 94952, USA",91,64,
pico rivera,california,33.9830688,-118.096735,"6750 Rosemead Blvd, Pico Rivera, CA 90660, USA",77,60,
pinole,california,38.0043667,-122.2988587,"1588 San Pablo Ave, Pinole, CA 94564, USA",56,43,
pismo beach,california,35.1427533,-120.6412827,"891 US-101 BUS, Pismo Beach, CA 93449, USA",68,61,
pittsburg,california,38.0279762,-121.8846806,"160 E 10th St, Pittsburg, CA 94565, USA",62,59,
placentia,california,33.8710729,-117.8627548,"Kraemer-Chapman, Placentia, CA 92870, USA",59,52,
placerville,california,38.7296252,-120.798546,"3025 Sacramento St, Placerville, CA 95667, USA",78,40,
pleasant hill,california,37.9479786,-122.0607963,"Gregory Ln/Contra Costa Blvd, Pleasant Hill, CA 94523, USA",84,71,
pleasanton,california,37.6624312,-121.8746789,"652 Main St, Pleasanton, CA 94566, USA",73,72,
pomona,california,34.055103,-117.7499909,"Garey Ave and Mission S, Pomona, CA 91766, USA",90,60,52
port hueneme,california,34.1477829,-119.1951074,"425 E Port Hueneme Rd, Port Hueneme, CA 93041, USA",73,65,
porterville,california,36.06523,-119.0167679,"8 W Olive Ave, Porterville, CA 93257, USA",88,61,
poway,california,32.9628232,-117.0358646,"13608 Putney Rd, Poway, CA 92064, USA",77,62,
rancho cordova,california,38.5890723,-121.302728,"10400-10416 Folsom Blvd, Rancho Cordova, CA 95670, USA",74,66,42
rancho cucamonga,california,34.10639889999999,-117.5931084,"9719 E Foothill Blvd, Rancho Cucamonga, CA 91730, USA",71,60,34
rancho mirage,california,33.739744,-116.41279,"42511 E Veldt St, Rancho Mirage, CA 92270, USA",51,51,
rancho palos verdes,california,33.7444613,-118.3870173,"11 Barkentine Rd, Rancho Palos Verdes, CA 90275, USA",21,28,
rancho santa margarita,california,33.640171,-117.602832,"30102 Santa Margarita Pkwy, Rancho Santa Margarita, CA 92688, USA",55,61,
red bluff,california,40.1784886,-122.2358302,"810 Main St, Red Bluff, CA 96080, USA",65,50,
redding,california,40.5865396,-122.3916754,"1289 CA-273, Redding, CA 96001, USA",71,85,30
redlands,california,34.0555693,-117.1825381,"18 E Citrus Ave, Redlands, CA 92373, USA",83,74,
redondo beach,california,33.8491816,-118.3884078,"501 Beryl St, Redondo Beach, CA 90277, USA",88,87,
redwood city,california,37.48521520000001,-122.2363548,"1201 Brewster Ave, Redwood City, CA 94062, USA",87,88,
reedley,california,36.5963395,-119.4504029,"1108 G St, Reedley, CA 93654, USA",87,80,
rialto,california,34.1064001,-117.3703235,"Riverside @ Foothill Sb Fs, Rialto, CA 92376, USA",78,57,38
richmond,california,37.9357576,-122.3477486,"2235 Macdonald Ave, Richmond, CA 94801, USA",87,87,
ridgecrest,california,35.6224561,-117.6708966,"634 S China Lake Blvd, Ridgecrest, CA 93555, USA",70,69,
rio dell,california,40.4993013,-124.1064369,"40 W Davis St, Rio Dell, CA 95562, USA",48,47,
rio vista,california,38.1557502,-121.6913439,"107 Main St, Rio Vista, CA 94571, USA",75,58,
ripon,california,37.7394537,-121.1354141,"P O Box 509, Ripon, CA 95366, United States",67,59,
riverbank,california,37.7360396,-120.9354895,"3300 Santa Fe St, Riverbank, CA 95367, USA",76,59,
riverside,california,33.9806005,-117.3754942,"3900 Main St, Riverside, CA 92501, USA",86,63,54
rocklin,california,38.7907339,-121.2357828,"5175 Pacific St, Rocklin, CA 95677, USA",62,86,
rohnert park,california,38.3396367,-122.7010984,"491 Alta Ave, Rohnert Park, CA 94928, USA",55,54,
rosemead,california,34.0805651,-118.072846,"9000 Valley Blvd, Rosemead, CA 91770, USA",82,60,
roseville,california,38.7521235,-121.2880059,"301-307 Washington Blvd, Roseville, CA 95678, USA",74,69,33
sacramento,california,38.5815719,-121.4943996,"907 9th St, Sacramento, CA 95814, USA",94,98,69
salinas,california,36.6777372,-121.6555013,"1 Main St, Salinas, CA 93901, USA",73,61,
san bernardino,california,34.1083449,-117.2897652,"300-312 W 5th St, San Bernardino, CA 92401, USA",78,62,54
san bruno,california,37.6304904,-122.4110835,"222 San Bruno Ave E, San Bruno, CA 94066, USA",84,67,
san clemente,california,33.4273521,-117.6126004,"99 Avenida Del Mar, San Clemente, CA 92672, USA",86,45,
san diego,california,32.715738,-117.1610838,"998 Fourth Ave, San Diego, CA 92101, USA",99,73,83
san dimas,california,34.1066756,-117.8067257,"Bonita Ave and San Dimas Ave E, San Dimas, CA 91773, USA",79,62,
san fernando,california,34.2819461,-118.4389719,"801 Truman St, San Fernando, CA 91340, USA",94,80,
san francisco,california,37.7749295,-122.4194155,"Unnamed Road, San Francisco, CA 94102, USA",99,97,100
san gabriel,california,34.09611110000001,-118.1058333,"420 W Mission Rd, San Gabriel, CA 91776, USA",80,57,
san jacinto,california,33.7839084,-116.958635,"123 E Main St, San Jacinto, CA 92583, USA",77,65,
san jose,california,37.3382082,-121.8863286,"195 E Santa Clara St, San Jose, CA 95112, USA",93,92,75
san juan capistrano,california,33.5019027,-117.6627655,"26801 Ortega Hwy, San Juan Capistrano, CA 92675, USA",85,76,
san leandro,california,37.7249296,-122.1560768,"1221 E 14th St, San Leandro, CA 94577, USA",94,70,
san luis obispo,california,35.2827524,-120.6596156,"San Luis Obispo, San Luis Obispo, CA 93401, USA",95,84,40
san marcos,california,33.1433723,-117.1661449,"236 W Mission Rd, San Marcos, CA 92069, USA",73,66,
san marino,california,34.121397,-118.1064585,"2180 Huntington Dr, San Marino, CA 91108, USA",56,57,
san mateo,california,37.5629917,-122.3255254,"2 E 3rd Ave, San Mateo, CA 94401, USA",96,77,
san pablo,california,37.9621457,-122.3455263,"2100 23rd St, San Pablo, CA 94806, USA",83,59,
san rafael,california,37.9735346,-122.5310874,"1314 4th St, San Rafael, CA 94901, USA",96,73,
san ramon,california,37.7799273,-121.9780153,"San Ramon Valley Blvd Between Fostoria Way, San Ramon, CA 94583, USA",62,64,
sanger,california,36.708006,-119.5559652,"540 Academy Ave, Sanger, CA 93657, USA",87,62,
santa ana,california,33.7454725,-117.867653,"1st-Main, Santa Ana, CA 92701, USA",99,61,51
santa barbara,california,34.4208305,-119.6981901,"100 E De La Guerra St, Santa Barbara, CA 93101, USA",98,76,
santa clara,california,37.3541079,-121.9552356,"1675 Lincoln St, Santa Clara, CA 95050, USA",64,77,50
santa clarita,california,34.3916641,-118.542586,"25128 Newhall Ave, Santa Clarita, CA 91321, USA",22,74,
santa cruz,california,36.9741171,-122.0307963,"598 Chestnut St, Santa Cruz, CA 95060, USA",97,94,47
santa fe springs,california,33.9472359,-118.0853451,"11627 Telegraph Rd, Santa Fe Springs, CA 90670, USA",77,59,
santa maria,california,34.9530337,-120.4357191,"2220 S Broadway, Santa Maria, CA 93454, USA",76,62,
santa monica,california,34.0194543,-118.4911912,"802 Santa Monica Blvd, Santa Monica, CA 90401, USA",91,90,79
santa paula,california,34.3541659,-119.0592705,"1033 E Main St, Santa Paula, CA 93060, USA",86,64,
santa rosa,california,38.440429,-122.7140548,"570 4th St, Santa Rosa, CA 95401, USA",99,77,49
santee,california,32.8383828,-116.9739167,"Mission Gorge Rd & Cottonwood Av, Santee, CA 92071, USA",63,49,
saratoga,california,37.2638324,-122.0230146,"10661 Douglass Ln, Saratoga, CA 95070, USA",20,51,
sausalito,california,37.8590937,-122.4852507,"324 Pine St, Sausalito, CA 94965, USA",82,46,
scotts valley,california,37.0510595,-122.0146841,"4859 Scotts Valley Dr, Scotts Valley, CA 95066, USA",51,65,
seal beach,california,33.7414085,-118.1047682,"148 Main St, Seal Beach, CA 90740, USA",88,78,
seaside,california,36.6149217,-121.822098,"1817 Juarez St, Seaside, CA 93955, USA",20,32,
sebastopol,california,38.4021359,-122.8238806,"101 S Main St, Sebastopol, CA 95472, USA",87,77,
selma,california,36.5707838,-119.6120765,"2050 Arrants St, Selma, CA 93662, USA",82,60,
shafter,california,35.5005139,-119.2717761,"777 Central Valley Hwy, Shafter, CA 93263, USA",81,62,
sierra madre,california,34.1616729,-118.0528456,"17 Kersting Ct, Sierra Madre, CA 91024, USA",76,48,
signal hill,california,33.8044614,-118.1678456,"Willow & Cherry NW, Signal Hill, CA 90755, USA",75,49,
simi valley,california,34.2694474,-118.781482,"864 Pacific Ave, Simi Valley, CA 93065, USA",76,83,
solana beach,california,32.991155,-117.2711481,"143j S Cedros Ave, Solana Beach, CA 92075, USA",67,69,
soledad,california,36.424687,-121.3263187,"900 Front St, Soledad, CA 93960, USA",74,56,
solvang,california,34.5958201,-120.1376481,"1714 Mission Dr, Solvang, CA 93463, USA",89,58,
sonoma,california,38.291859,-122.4580356,"501 Broadway, Sonoma, CA 95476, USA",86,68,
sonora,california,37.9829496,-120.3821724,"181 S Washington St, Sonora, CA 95370, USA",84,36,
south el monte,california,34.0519548,-118.0467339,"Rush / Central, South El Monte, CA 91733, USA",65,56,
south gate,california,33.954737,-118.2120161,"Firestone / State, South Gate, CA 90280, USA",82,61,
south lake tahoe,california,38.939926,-119.9771868,"3053 Lake Tahoe Blvd, South Lake Tahoe, CA 96150, USA",57,86,
south pasadena,california,34.1161196,-118.1503488,"Fair Oaks / Mission, South Pasadena, CA 91030, USA",95,58,
south san francisco,california,37.654656,-122.4077498,"296 Airport Blvd, South San Francisco, CA 94080, USA",88,53,
stanton,california,33.8028875,-117.9931203,"Beach-Katella, Stanton, CA 90680, USA",74,60,
stockton,california,37.9577016,-121.2907796,"510 N El Dorado St, Stockton, CA 95202, USA",91,67,51
suisun city,california,38.2382474,-122.040244,"700 Main St, Suisun City, CA 94585, USA",48,56,
sunnyvale,california,37.36883,-122.0363496,"390 W El Camino Real, Sunnyvale, CA 94087, USA",88,75,48
susanville,california,40.4162842,-120.6530063,"39 Foss St, Susanville, CA 96130, USA",80,66,
sutter creek,california,38.3929675,-120.8024357,"36 Main St, Sutter Creek, CA 95685, USA",55,42,
taft,california,35.1424671,-119.4565078,"330 4th St, Taft, CA 93268, USA",81,62,
tehachapi,california,35.1321877,-118.4489739,"160 W Tehachapi Blvd, Tehachapi, CA 93561, USA",74,61,
temecula,california,33.4936391,-117.1483648,"41990 Main St, Temecula, CA 92590, USA",80,51,
temple city,california,34.1072305,-118.0578456,"9701 Las Tunas Dr, Temple City, CA 91780, USA",80,60,
thousand oaks,california,34.1705609,-118.8375937,"2945 Thousand Oaks Blvd, Thousand Oaks, CA 91362, USA",78,54,
torrance,california,33.8358492,-118.3406288,"3221 Torrance Blvd, Torrance, CA 90503, USA",68,65,44
tracy,california,37.7396513,-121.4252227,"22 Eleventh St, Tracy, CA 95376, USA",88,61,
truckee town,california,39.327962,-120.1832533,"10027 Donner Pass Rd, Truckee, CA 96161, USA",59,77,
tulare,california,36.2077288,-119.3473379,"115 E Tulare Ave, Tulare, CA 93274, USA",81,76,
tulelake,california,41.9559884,-121.4774916,"338 C St, Tulelake, CA 96134, USA",54,50,
turlock,california,37.4946568,-120.8465941,"111 N Golden State Blvd, Turlock, CA 95380, USA",81,65,34
tustin,california,33.7420005,-117.8236391,"100 W Main St, Tustin, CA 92780, USA",84,63,
twentynine palms,california,34.1355582,-116.0541689,"73709 Twentynine Palms Highway, Twentynine Palms, CA 92277, USA",62,53,
ukiah,california,39.1501709,-123.2077831,"101 N State St, Ukiah, CA 95482, USA",86,70,
union city,california,37.5933918,-122.0438298,"Alvarado-Niles Rd & Dowe Av, Union City, CA 94587, USA",53,55,
upland,california,34.09751,-117.6483876,"308B N 2nd Ave, Upland, CA 91786, USA",83,76,
vacaville,california,38.3565773,-121.9877444,"300-328 Elizabeth St, Vacaville, CA 95688, USA",84,53,
vallejo,california,38.1040864,-122.2566367,"901 Marin St, Vallejo, CA 94590, USA",87,64,
victorville,california,34.5362184,-117.2927641,"15655 7th St, Victorville, CA 92395, USA",61,43,28
villa park,california,33.81400620000001,-117.8220723,"17583 Santiago Blvd, Villa Park, CA 92861, USA",61,64,
visalia,california,36.3302284,-119.2920585,"22223 Carson Ave, Visalia, CA 93291, USA",87,62,
vista,california,33.2000368,-117.2425355,"223 S Santa Fe Ave, Vista, CA 92083, USA",56,48,51
walnut,california,34.0202894,-117.8653386,"20149 La Puente Rd, Walnut, CA 91789, USA",66,54,
walnut creek,california,37.9100783,-122.0651819,"2225 N Main St, Walnut Creek, CA 94596, USA",83,61,
waterford,california,37.6413202,-120.7604834,"12705 Bentley St, Waterford, CA 95386, USA",77,57,
watsonville,california,36.910231,-121.7568946,"5 E Beach St, Watsonville, CA 95076, USA",91,88,
weed,california,41.42264979999999,-122.3861269,"228 Grove St, Weed, CA 96094, USA",56,48,
west covina,california,34.0686208,-117.9389526,"705 S Sunset Ave, West Covina, CA 91790, USA",73,59,
west hollywood,california,34.0900091,-118.3617443,"1049 N Fairfax Ave, West Hollywood, CA 90046, USA",96,61,59
west sacramento,california,38.5804609,-121.530234,"1640 Lincoln Hwy, West Sacramento, CA 95691, USA",70,73,33
westlake village,california,34.1466467,-118.8073729,"1 WellPoint Way, Thousand Oaks, CA 91362, USA",37,39,
westminster,california,33.7591757,-117.9897058,"14011 Beach Blvd, Westminster, CA 92683, USA",74,60,
westmorland,california,33.0372674,-115.6213817,"194 N Center St, Westmorland, CA 92281, USA",48,50,
wheatland,california,39.0098946,-121.4230133,"503 Main St, Wheatland, CA 95692, USA",49,52,
whittier,california,33.9791793,-118.032844,"13363-13399 Philadelphia St, Whittier, CA 90601, USA",88,55,
wildomar,california,33.5989126,-117.2800372,"21436 Grand Ave, Wildomar, CA 92595, USA",9,31,
williams,california,39.1546137,-122.1494187,"663 E St, Williams, CA 95987, USA",67,55,
willits,california,39.4096079,-123.3555656,"291 School St, Willits, CA 95490, USA",83,62,
willows,california,39.5243265,-122.1935931,"410 N Tehama St, Willows, CA 95988, USA",58,57,
windsor town,california,38.5471327,-122.8163802,"378 Windsor River Rd, Windsor, CA 95492, USA",78,62,
winters,california,38.5249065,-121.9708017,"2 Grant Ave, Winters, CA 95694, USA",75,66,
woodlake,california,36.4135605,-119.0987176,"384 Danielle Way, Woodlake, CA 93286, USA",56,61,
woodland,california,38.67851570000001,-121.7732971,"300 1st St, Woodland, CA 95695, USA",88,92,33
yorba linda,california,33.88850350000001,-117.8132571,"18992 Yorba Linda Blvd, Yorba Linda, CA 92886, USA",82,69,
yountville,california,38.40157809999999,-122.3608105,"6509 Washington St, Yountville, CA 94599, USA",53,74,
yreka,california,41.7354186,-122.6344709,"414 N Main St, Yreka, CA 96097, USA",62,53,
yuba city,california,39.1404477,-121.6169108,"444 Colusa Ave, Yuba City, CA 95991, USA",85,67,
yucaipa,california,34.033625,-117.0430865,"34909 Yucaipa Blvd, Yucaipa, CA 92399, USA",64,52,
yucca valley town,california,34.1141743,-116.432235,"56329 Stardust Trail, Yucca Valley, CA 92284, USA",40,43,
aurora,colorado,39.7294319,-104.8319195,"899 Vaughn St, Aurora, CO 80011, USA",33,69,48
boulder,colorado,40.0149856,-105.2705456,"1515 19th St, Boulder, CO 80302, USA",91,99,63
broomfield,colorado,39.9205411,-105.0866504,"300 Nickel St, Broomfield, CO 80020, USA",77,67,
castle rock town,colorado,39.3722121,-104.8560902,"222 Cantril St, Castle Rock, CO 80104, USA",73,77,
colorado springs,colorado,38.8338816,-104.8213634,"200 E Pikes Peak Ave, Colorado Springs, CO 80903, USA",85,88,49
denver,colorado,39.7392358,-104.990251,"1437 Bannock St, Denver, CO 80202, USA",93,94,91
erie town,colorado,40.0502623,-105.0499817,"575 Holbrook St, Erie, CO 80516, USA",45,72,
golden,colorado,39.755543,-105.2210997,"1117 Washington Ave, Golden, CO 80401, USA",77,78,
lafayette,colorado,39.9935959,-105.0897058,"504 S Public Rd, Lafayette, CO 80026, USA",85,58,
littleton,colorado,39.613321,-105.0166498,"2420 W Main St, Littleton, CO 80120, USA",84,81,54
lone tree,colorado,39.536482,-104.8970678,"IndianTrails rd, Lone Tree, CO 80124, United States",29,38,
louisville,colorado,39.977763,-105.1319296,"740 Main St, Louisville, CO 80027, USA",81,72,
monument town,colorado,39.0916586,-104.872758,"105 2nd St, Monument, CO 80132, USA",44,64,
parker town,colorado,39.5186002,-104.7613633,"19594 Mainstreet, Parker, CO 80138, USA",81,73,
windsor town,colorado,40.4774818,-104.9013617,"318 Elm St, Windsor, CO 80550, USA",61,52,
bridgeport,connecticut,41.1792258,-73.1894384,"108 Fairfield Ave, Bridgeport, CT 06604, USA",89,70,
cheshire village,connecticut,41.5083668,-72.9106202,"99 Grove St, Cheshire, CT 06410, USA",44,48,
darien,connecticut,41.0771914,-73.4686858,"26-2 Mechanic St, Darien, CT 06820, USA",68,57,
east hartford,connecticut,41.7634219,-72.6128339,"741R Silver Ln, East Hartford, CT 06118, USA",42,67,
glastonbury center,connecticut,41.6861794,-72.5450779,"176 Three Mile Rd, Glastonbury, CT 06033, USA",14,15,
greenwich,connecticut,41.0262417,-73.6281964,"40 W Elm St, Greenwich, CT 06830, USA",92,55,
guilford center,connecticut,41.288906,-72.674364,"Boston Post Rd and Village Walk, Guilford, CT 06437, USA",55,51,
hartford,connecticut,41.7658043,-72.6733723,"P O Box 341193, Hartford, CT 06103, United States",94,70,
madison center,connecticut,41.2959908,-72.5754149,"12 Campus Dr, Madison, CT 06443, USA",7,30,
new britain,connecticut,41.6612104,-72.7795419,"110 Franklin Square, New Britain, CT 06051, USA",81,63,
new haven,connecticut,41.308274,-72.9278835,"285 College St, New Haven, CT 06510, USA",94,95,
new london,connecticut,41.3556539,-72.0995209,"20 Adedayo Omotolani Street, Estate, Baruwa, Lagos, New London, CT 06320, United States",91,47,
newington,connecticut,41.6972996,-72.7228293,"1068 Main St, Newington, CT 06111, USA",70,55,
orange,connecticut,41.278637,-73.0265277,"205 Meetinghouse Ln, Orange, CT 06477, USA",31,37,
ridgefield,connecticut,41.28406349999999,-73.4975412,"25 Prospect St, Ridgefield, CT 06877, USA",77,43,
simsbury center,connecticut,41.8540094,-72.82791499999999,"27 Springbrook Ln, Simsbury, CT 06070, USA",7,25,
trumbull,connecticut,41.2428563,-73.2006639,"49 Moorland Rd, Trumbull, CT 06611, USA",30,24,
waterbury,connecticut,41.5581525,-73.0514965,"594 W Main St, Waterbury, CT 06702, USA",80,55,
west hartford,connecticut,41.7620842,-72.7420151,"946 Farmington Ave, West Hartford, CT 06107, USA",90,73,
westport,connecticut,41.1414717,-73.3579049,"223 State St E, Westport, CT 06880, USA",67,43,
wethersfield,connecticut,41.7063537,-72.6596244,"3 Wells Rd, Wethersfield, CT 06109, USA",73,61,
willimantic,connecticut,41.7106543,-72.2081338,"503 Main St, Willimantic, CT 06226, USA",80,68,
wilton center,connecticut,41.190941,-73.427643,"Wilton Center, Wilton, CT 06897, USA",55,34,
bethany beach town,delaware,38.5395564,-75.0551806,"c4 edgewater house rd, Bethany Beach, DE 19930, USA",50,68,
bridgeville town,delaware,38.7426137,-75.60437139999999,"315 Market St, Bridgeville, DE 19933, USA",55,50,
clayton town,delaware,39.2906671,-75.6343727,"401 Main St, Clayton, DE 19938, USA",18,48,
dagsboro town,delaware,38.5492801,-75.2457443,"27515 Hodges Lane, N#4, Dagsboro, DE 19939, United States",,,
delaware city,delaware,39.5778901,-75.588815,"93 Clinton St, Delaware City, DE 19706, USA",48,46,
delmar town,delaware,38.4565052,-75.57714709999999,"9 E State St, Delmar, DE 19940, USA",45,49,
dover,delaware,39.158168,-75.5243682,"201 S State St, Dover, DE 19904, USA",83,56,43
ellendale town,delaware,38.8070575,-75.422697,"311 Main St, Ellendale, DE 19941, USA",10,31,
felton town,delaware,39.0084463,-75.5779807,"124 W Main St, Felton, DE 19943, USA",23,46,
frankford town,delaware,38.5173356,-75.2349107,"46 Frankford Ave, Frankford, DE 19945, USA",28,42,
frederica town,delaware,39.0090017,-75.46575419999999,"6 Market St, Frederica, DE 19946, USA",10,34,
georgetown town,delaware,38.6901134,-75.38547280000002,"99-20 The Circle, Georgetown, DE 19947, USA",75,58,
greenwood town,delaware,38.8070578,-75.59131529999999,"21 Market St, Greenwood, DE 19950, USA",27,48,
harrington,delaware,38.9237244,-75.5777033,"2 Commerce St, Harrington, DE 19952, USA",51,50,
laurel town,delaware,38.5565041,-75.5713141,"Food Lion, 30214 Sussex Highway, Laurel, DE 19956, United States",65,54,
lewes,delaware,38.7745565,-75.13934979999999,"212 Savannah Rd, Lewes, DE 19958, USA",63,80,
middletown town,delaware,39.449556,-75.7163207,"8 E Main St, Middletown, DE 19709, USA",77,65,
milford,delaware,38.9126129,-75.4279748,"9 S E Front St, Milford, DE 19963, USA",82,58,
millsboro town,delaware,38.59150229999999,-75.2913018,"238 Main St, Millsboro, DE 19966, USA",60,54,
milton town,delaware,38.7776124,-75.3099136,"107 Front St, Milton, DE 19968, USA",44,48,
new castle,delaware,39.6620397,-75.5668166,"531 Delaware St, New Castle, DE 19720, USA",52,73,
newark,delaware,39.6837226,-75.74965720000002,"92 E Main St, Newark, DE 19711, USA",82,81,
ocean view town,delaware,38.5451122,-75.0890709,"56 West Ave, Ocean View, DE 19970, USA",40,45,
rehoboth beach,delaware,38.7209454,-75.07601369999999,"1 Grenoble Pl, Rehoboth Beach, DE 19971, USA",58,55,
seaford,delaware,38.6412256,-75.6110381,"103 S Pine St, Seaford, DE 19973, USA",65,52,
selbyville town,delaware,38.4603917,-75.2207437,"2 Church St, Selbyville, DE 19975, USA",48,47,
smyrna town,delaware,39.2998339,-75.6046494,"100 S Main St, Smyrna, DE 19977, USA",66,52,
wilmington,delaware,39.744655,-75.5483909,"838 N Market St, Wilmington, DE 19801, USA",97,59,63
washington,district of columbia,38.9071923,-77.0368707,"1301 Bataan St NW, Washington, DC 20036, USA",98,91,100
alachua,florida,29.7938144,-82.49442260000001,"Message Ctr , Alachua, FL 32615, Alachua, FL 32615, United States",60,48,
auburndale,florida,28.0652975,-81.7886906,"103 Main St, Auburndale, FL 33823, USA",51,57,
bartow,florida,27.8964147,-81.8431374,"3585 us Hwy 17 N, Bartow, FL 33830, United States",62,57,
belle glade,florida,26.6845104,-80.6675577,"209 S Main St, Belle Glade, FL 33430, USA",74,62,
boca raton,florida,26.3683064,-80.1289321,"2331 FL-808, Boca Raton, FL 33431, USA",48,63,
boynton beach,florida,26.5317866,-80.0905465,"1790 N Congress Ave, Boynton Beach, FL 33426, USA",55,52,
bradenton,florida,27.4989278,-82.5748194,"1301 1st Ave W, Bradenton, FL 34205, USA",55,61,38
clermont,florida,28.5494447,-81.77285429999999,"1055 Linden St, Clermont, FL 34711, USA",61,48,
cocoa,florida,28.3861159,-80.7419984,"112-198 Circle Dr, Cocoa, FL 32922, USA",28,54,24
daytona beach,florida,29.2108147,-81.0228331,"301 US-92, Daytona Beach, FL 32114, USA",74,79,
delray beach,florida,26.4614625,-80.0728201,"4 E Atlantic Ave, Delray Beach, FL 33444, USA",92,63,
dunedin,florida,28.0197404,-82.7717684,"Traveling Instructor, Dunedin, FL 34698, United States",74,67,
fernandina beach,florida,30.6696818,-81.46259189999999,"312 Ash St, Fernandina Beach, FL 32034, USA",66,72,
fort lauderdale,florida,26.1224386,-80.13731740000001,"599 E Broward Blvd, Fort Lauderdale, FL 33301, USA",94,57,59
fort myers,florida,26.640628,-81.8723084,"104 Tamiami Trail, Fort Myers, FL 33901, USA",75,63,
fort pierce,florida,27.4467056,-80.3256056,"106 US-1, Fort Pierce, FL 34950, USA",69,76,
gulf breeze,florida,30.3571438,-87.1638574,"843 Gulf Breeze Pkwy, Gulf Breeze, FL 32561, USA",49,76,
hialeah,florida,25.8575963,-80.2781057,"228 E 39th St, Hialeah, FL 33013, USA",75,59,42
hollywood,florida,26.0112014,-80.1494901,"2100 FL-820, Hollywood, FL 33020, USA",95,69,43
homestead,florida,25.4687224,-80.4775569,"180 S Flagler Ave, Homestead, FL 33030, USA",86,85,43
jacksonville,florida,30.3321838,-81.65565099999999,"720n N Ocean St, Jacksonville, FL 32202, USA",88,65,
jacksonville beach,florida,30.2841224,-81.3961338,"320 S 7th St, Jacksonville Beach, FL 32250, USA",79,66,
jupiter farms,florida,26.9422282,-80.1909191,"17999 Jupiter Farms Rd, Jupiter, FL 33478, USA",30,42,
jupiter inlet colony town,florida,26.9478705,-80.07444579999999,"228 Colony Rd, Jupiter, FL 33469, USA",,,
jupiter island town,florida,27.0314437,-80.1014311,"242 S Beach Rd, Hobe Sound, FL 33455, USA",,,
jupiter town,florida,26.9342246,-80.0942087,"100 W Indiantown Rd, Jupiter, FL 33458, USA",78,69,
kissimmee,florida,28.2919557,-81.40757099999999,"Robards Number Four Heliport, Kissimmee, FL 34746, USA",72,71,
lady lake town,florida,28.9174855,-81.92286039999999,"120 US-441, Lady Lake, FL 32159, USA",28,45,
lake city,florida,30.1896756,-82.6392899,"12438 S, US-441, Lake City, FL 32025, United States",60,65,
lake mary,florida,28.7588833,-81.3178446,"Lake Mary SunRail, Lake Mary, FL 32746, USA",44,58,
lakeland,florida,28.0394654,-81.9498042,"801 E Walnut St, Lakeland, FL 33801, USA",69,68,
leesburg,florida,28.810823,-81.87785819999999,"515 W Main St, Leesburg, FL 34748, USA",71,89,
longwood,florida,28.7030519,-81.3384011,"487 E Palmetto Ave, Longwood, FL 32750, USA",57,56,
lynn haven,florida,30.2454776,-85.64826099999999,"825 Ohio Ave, Lynn Haven, FL 32444, USA",63,58,
maitland,florida,28.6277767,-81.36312439999999,"110 Orlando Ave, Maitland, FL 32751, USA",66,74,
marco island,florida,25.9397412,-81.70753549999999,"123 Z, Marco Island, FL 34145, United States",18,46,
melbourne,florida,28.0836269,-80.60810889999999,"800 E Seminole Ave, Melbourne, FL 32901, USA",71,63,
miami,florida,25.7616798,-80.1917902,"1213 Brickell Ave, Miami, FL 33131, USA",96,83,88
miami gardens,florida,25.9420377,-80.2456045,"18400 FL-817, Miami Gardens, FL 33056, USA",84,58,49
mount dora,florida,28.8024918,-81.644519,"714 N Donnelly St, Mt Dora, FL 32757, USA",70,62,
naples,florida,26.1420358,-81.7948103,"482498 Tamiami Trail, Naples, FL 34102, USA",77,63,
new smyrna beach,florida,29.0258191,-80.9269984,"219 N Dixie Fwy, New Smyrna Beach, FL 32168, USA",60,74,
niceville,florida,30.5168639,-86.48217199999999,"210 Reynolds Ave, Niceville, FL 32578, USA",47,56,
north palm beach village,florida,26.8171165,-80.0590804,"109 Paradise Harbour Blvd, #106, C/O Virginia Altork, North Palm Beach, FL 33408, United States",,,
okeechobee,florida,27.2439349,-80.82978279999999,"106 N Parrott Ave, Okeechobee, FL 34972, USA",60,59,
oldsmar,florida,28.0341847,-82.6650992,"417 Park Blvd, Oldsmar, FL 34677, USA",46,57,
orlando,florida,28.5383355,-81.3792365,"2 W South St, Orlando, FL 32801, USA",90,76,68
ormond beach,florida,29.2858129,-81.0558894,"4 N Beach St, Ormond Beach, FL 32174, USA",58,65,
oviedo,florida,28.669997,-81.20812029999999,"20 E Broadway St, Oviedo, FL 32765, USA",44,73,
palatka,florida,29.6485801,-81.6375819,"819 FL-15, Palatka, FL 32177, USA",66,84,
palm beach gardens,florida,26.8233946,-80.13865469999999,"1048 Diamond Head Way, Palm Beach Gardens, FL 33418, USA",1,36,
panama city,florida,30.1588129,-85.6602058,"2-98 E 6th St, Panama City, FL 32401, USA",71,68,
pembroke pines,florida,26.007765,-80.2962555,"11230 Pines Blvd, Pembroke Pines, FL 33026, USA",69,68,
perry,florida,30.1115662,-83.58210629999999,"27 W Hampton Springs Ave, Perry, FL 32347, USA",44,56,
pompano beach,florida,26.2378597,-80.1247667,"621 N Dixie Hwy, Pompano Beach, FL 33060, USA",64,75,39
port orange,florida,29.1383165,-80.9956105,"535 Locust St, Port Orange, FL 32127, USA",37,51,
punta gorda,florida,26.9297836,-82.0453664,"1010 Taylor St, Punta Gorda, FL 33950, USA",63,65,
quincy,florida,30.5880468,-84.59105799999999,"976 N Pat Thomas Pkwy, Quincy, FL 32351, USA",58,60,
rockledge,florida,28.3164498,-80.72698539999999,"819 Topaz Dr, Rockledge, FL 32955, USA",17,42,
safety harbor,florida,27.9908529,-82.6931553,"595 Main St, Safety Harbor, FL 34695, USA",60,60,
sanford,florida,28.8028612,-81.269453,"211 W 11th St, Sanford, FL 32771, USA",63,60,
sarasota,florida,27.3364347,-82.53065269999999,"2005 Main St, Sarasota, FL 34237, USA",92,70,47
satellite beach,florida,28.1761233,-80.59005189999999,"1303 Florida A1A, Satellite Beach, FL 32937, USA",49,55,
sebastian,florida,27.816415,-80.4706078,"1130 Louisiana Ave, Sebastian, FL 32958, USA",38,60,
sebring,florida,27.495592,-81.440907,"209 Circle Park Dr, Sebring, FL 33870, USA",72,66,
seminole,florida,27.8397466,-82.79121339999999,"10999 Park Blvd N, Seminole, FL 33772, USA",74,63,
stuart,florida,27.197548,-80.2528257,"2 Florida A1A, Stuart, FL 34994, USA",73,84,
tampa,florida,27.950575,-82.4571776,"509 E Zack St, Tampa, FL 33602, USA",85,71,68
tarpon springs,florida,28.1461248,-82.7567679,"4 S Pinellas Ave, Tarpon Springs, FL 34689, USA",82,77,
venice,florida,27.0997775,-82.4542632,"601 W Venice Ave, Venice, FL 34285, USA",65,63,23
vero beach,florida,27.6386434,-80.39727359999999,"1201 20th St, Vero Beach, FL 32960, USA",76,73,
wellington village,florida,26.6617635,-80.2683571,"13998 Wellington Trace, Wellington, FL 33414, USA",63,57,
west palm beach,florida,26.7153424,-80.0533746,"294 N Dixie Hwy, West Palm Beach, FL 33401, USA",96,89,
windermere town,florida,28.4955593,-81.53479519999999,"503b Main St, Windermere, FL 34786, USA",47,48,
winter springs,florida,28.6988853,-81.30812259999999,"250 FL-434, Winter Springs, FL 32708, USA",61,56,
albany,georgia,31.5785074,-84.15574099999999,"323-399 Pine Ave, Albany, GA 31701, USA",59,61,
alpharetta,georgia,34.0753762,-84.2940899,"10405 Old Roswell Rd, Alpharetta, GA 30022, USA",65,57,
americus,georgia,32.0723861,-84.23268759999999,"Municipal Building City of Americus, 101 W Lamar St, Americus, GA 31709, USA",66,59,
atlanta,georgia,33.7489954,-84.3879824,"Georgia State Capitol, Atlanta, GA 30334, USA",93,61,83
austell,georgia,33.8126059,-84.6343783,"2765 Veterans Memorial Hwy SW, Austell, GA 30168, USA",45,46,
bainbridge,georgia,30.9037995,-84.57546990000002,"401-403 S Broad St, Bainbridge, GA 39819, USA",68,64,
blairsville,georgia,34.8761989,-83.95824119999999,"55 Blue Ridge St, Blairsville, GA 30512, USA",60,43,
brunswick,georgia,31.1499528,-81.49148939999999,"3614, Brunswick, GA 31520, United States",84,62,
calhoun,georgia,34.502587,-84.9510542,"101-129 GA-3, Calhoun, GA 30701, USA",63,58,
canton,georgia,34.2367621,-84.4907621,"101 W Main St, Canton, GA 30114, USA",66,48,
cedartown,georgia,34.0112715,-85.25658229999999,"144 West Ave, Cedartown, GA 30125, USA",68,82,
chatsworth,georgia,34.7659145,-84.7699385,"101 S 3rd Ave, Chatsworth, GA 30705, USA",56,53,
clarkston,georgia,33.8095487,-84.23964339999999,"4193 E Ponce de Leon Ave, Clarkston, GA 30021, USA",69,61,
columbus,georgia,32.4609764,-84.9877094,"801-803 Veterans Pkwy, Columbus, GA 31901, USA",76,73,
conyers,georgia,33.6676103,-84.01769039999999,"868 North Main St NW, Conyers, GA 30012, USA",68,66,
cordele,georgia,31.9635074,-83.7823938,"100-104 GA-30, Cordele, GA 31015, USA",67,69,
covington,georgia,33.5967815,-83.8601827,"1124 Clark St SW, Covington, GA 30014, USA",70,59,
cumming,georgia,34.2073196,-84.14019259999999,"20 Tribble Gap Rd, Cumming, GA 30040, USA",60,55,
dalton,georgia,34.7698021,-84.9702228,"209 W Cuyler St, Dalton, GA 30720, USA",71,64,
decatur,georgia,33.7748275,-84.2963123,"Not available, Decatur, GA 30030, United States",94,78,
douglas,georgia,31.5088073,-82.8498654,"108 E Ward St, Douglas, GA 31533, USA",71,79,
douglasville,georgia,33.7514966,-84.7477136,"12333 GA-8, Douglasville, GA 30134, USA",73,53,
dublin,georgia,32.5404447,-82.90375399999999,"101 N Jefferson St, Dublin, GA 31021, USA",69,68,
duluth,georgia,34.0028786,-84.1446376,"3100 Main St, Duluth, GA 30096, USA",50,44,
fairburn,georgia,33.5670562,-84.5810418,"7 SW Broad St, Fairburn, GA 30213, USA",63,46,
fayetteville,georgia,33.4487257,-84.4549262,"150 E Lanier Ave, Fayetteville, GA 30214, USA",60,62,
flowery branch,georgia,34.1851017,-83.9251809,"5298 Railroad Ave, Flowery Branch, GA 30542, USA",40,35,
forest park,georgia,33.6220542,-84.36909179999999,"4873 West St, Forest Park, GA 30297, USA",71,64,
griffin,georgia,33.2467807,-84.2640904,"106 W Taylor St, Griffin, GA 30223, USA",74,65,
hampton,georgia,33.3870578,-84.2829784,"24 E Main St N, Hampton, GA 30228, USA",56,54,
hephzibah,georgia,33.3140311,-82.0967857,"4400 Brothersville Rd, Hephzibah, GA 30815, USA",33,34,
hinesville,georgia,31.846877,-81.5959453,"2 to 9 General scener way 8 H2, Hinesville, GA 31313, United States",63,52,
hiram,georgia,33.8756601,-84.7621592,"37 Beatty St, Hiram, GA 30141, USA",43,43,
jackson,georgia,33.2945651,-83.96602089999999,"2 S Mulberry St, Jackson, GA 30233, USA",59,58,
jasper,georgia,34.4695524,-84.4289888,"27 Burnt Mountain Rd, Big Canoe, GA 30143, USA",48,25,
jesup,georgia,31.6074365,-81.8853924,"300-326 GA-27, Jesup, GA 31545, USA",66,55,
jonesboro,georgia,33.5215013,-84.3538128,"102 N McDonough St, Jonesboro, GA 30236, USA",48,52,
kingsland,georgia,30.7999563,-81.68982609999999,"103 N Lee St, Kingsland, GA 31548, USA",42,61,
lagrange,georgia,33.0362218,-85.0322444,"214 Bull St, LaGrange, GA 30240, USA",72,52,
lilburn,georgia,33.8901036,-84.14297189999999,"285 Main St NW, Lilburn, GA 30047, USA",53,47,
lithonia,georgia,33.7123305,-84.1051939,"7278 Conyers St, Lithonia, GA 30058, USA",59,46,
marietta,georgia,33.95260200000001,-84.5499327,"99 S Park Square NE, Marietta, GA 30060, USA",79,60,
milledgeville,georgia,33.0801429,-83.2320991,"3043 N Columbia St, Milledgeville, GA 31061, USA",63,51,
morrow,georgia,33.5831662,-84.33936829999999,"1515 Morrow Rd, Morrow, GA 30260, USA",51,50,
moultrie,georgia,31.1799407,-83.7888387,"10 N Main St, Moultrie, GA 31768, USA",61,68,
norcross,georgia,33.9412127,-84.2135309,"87 S Peachtree St, Norcross, GA 30071, USA",67,51,
peachtree city,georgia,33.3968557,-84.59634319999999,"2703 Col Joe M Jackson Medal of Honor Hwy, Peachtree City, GA 30269, USA",56,51,
richmond hill,georgia,31.9382652,-81.3034433,"10770 Ford Ave, Richmond Hill, GA 31324, USA",47,51,
riverdale,georgia,33.5726113,-84.4132594,"650-698 Main St, Riverdale, GA 30274, USA",68,59,
rossville,georgia,34.9831309,-85.2860676,"303 Chickamauga Ave, Rossville, GA 30741, USA",,,
roswell,georgia,34.0232431,-84.3615555,"890 Atlanta St, Roswell, GA 30075, USA",73,49,
savannah,georgia,32.0808989,-81.091203,"2 Bull St, Savannah, GA 31401, USA",88,76,
senoia,georgia,33.3023411,-84.5538165,"87 Main St, Senoia, GA 30276, USA",53,68,
statesboro,georgia,32.4487876,-81.7831674,"2 E Main St, Statesboro, GA 30458, USA",69,69,
stone mountain,georgia,33.8081608,-84.17019599999999,"5348 E Mountain St, Stone Mountain, GA 30083, USA",58,66,
suwanee,georgia,34.0514898,-84.0712997,"561 US-23, Suwanee, GA 30024, USA",33,30,
thomaston,georgia,32.8881879,-84.3265854,"106 W Main St, Thomaston, GA 30286, USA",70,60,
thomasville,georgia,30.8365815,-83.9787808,"124 W Remington Ave, Thomasville, GA 31792, USA",70,70,
tifton,georgia,31.4504629,-83.5084973,"212 5th St E, Tifton, GA 31794, USA",70,71,
union city,georgia,33.5870558,-84.5424299,"Bantry Cir, Union City, GA 30291, USA",23,39,
valdosta,georgia,30.8327022,-83.2784851,"205 N Ashley St, Valdosta, GA 31601, USA",66,73,
warner robins,georgia,32.6130007,-83.624201,"205 S Pleasant Hill Rd, Warner Robins, GA 31088, USA",43,51,
watkinsville,georgia,33.8628959,-83.4087708,"24 GA-15, Watkinsville, GA 30677, USA",44,44,
waycross,georgia,31.2135511,-82.3540178,"800 Plant Ave, Waycross, GA 31501, USA",66,63,
winder,georgia,33.9926097,-83.7201709,"59 N Broad St, Winder, GA 30680, USA",72,68,
woodstock,georgia,34.1014873,-84.5193754,"8560 Main St, Woodstock, GA 30188, USA",64,51,
algonquin village,illinois,42.1655801,-88.29424929999999,"302 S Main St, Algonquin, IL 60102, USA",49,79,
arlington heights village,illinois,42.0883603,-87.98062650000001,"112 E Euclid Ave, Arlington Heights, IL 60004, USA",76,78,
barrington hills village,illinois,42.1332808,-88.19741479999999,"333 Old Sutton Rd, Barrington, IL 60010, USA",0,30,
barrington village,illinois,42.1539141,-88.1361888,"115 IL-59, Barrington, IL 60010, USA",,,
bartlett village,illinois,41.9950276,-88.1856301,"112 N Oak Ave, Bartlett, IL 60103, USA",60,60,
batavia,illinois,41.8500284,-88.3125738,"317 W Wilson St, Batavia, IL 60510, USA",77,83,
buffalo grove village,illinois,42.1662831,-87.9631308,"255 N Bu ffalo Grove Rd unit 4831 IN POSTAL 60089 yH, Buffalo Grove, IL 60089, United States",41,72,
calumet city,illinois,41.6155909,-87.5294871,"701 Wentworth Ave, Calumet City, IL 60409, USA",75,65,
cary village,illinois,42.21324990000001,-88.24768499999999,"445 Park Ave, Cary, IL 60013, USA",58,61,
chatham village,illinois,39.676163,-89.70454389999999,"215 N Main, Chatham, IL 62629, USA",66,66,
chicago,illinois,41.8781136,-87.6297982,"55 W Jackson Blvd, Chicago, IL 60604, USA",99,85,100
chicago heights,illinois,41.506146,-87.6355995,"1350 S Halsted St, Chicago Heights, IL 60411, USA",69,74,
cicero town,illinois,41.8455877,-87.7539448,"2504 S Laramie Ave, Cicero, IL 60804, USA",81,69,62
columbia,illinois,38.44366369999999,-90.2012239,"207 N Main St, Columbia, IL 62236, USA",69,54,
danville,illinois,40.124481,-87.6300207,"17 N Vermilion St, Danville, IL 61832, USA",72,63,
darien,illinois,41.7483483,-87.9737943,"Modell Funeral Home, 7710 Cass Avenue, Darien, IL 60561, USA",64,73,
deerfield village,illinois,42.1711365,-87.8445119,"648 Elder Ln, Deerfield, IL 60015, USA",71,57,
downers grove village,illinois,41.8089191,-88.01117459999999,"1022 Ogden Ave, Downers Grove, IL 60515, USA",70,58,
elburn village,illinois,41.8922499,-88.47230139999999,"1 S Main St, Elburn, IL 60119, USA",48,55,
elk grove village village,illinois,42.0039178,-87.9703461,"1485 Lively Blvd, Elk Grove Village, IL 60007, USA",31,42,
elmhurst,illinois,41.8994744,-87.9403418,"107 W Park Ave, Elmhurst, IL 60126, USA",88,57,36
frankfort square,illinois,41.5189226,-87.8031048,"7723 Jamison Dr, Frankfort, IL 60423, USA",29,56,
frankfort village,illinois,41.4958665,-87.84866129999999,"9 W Sauk Trail, Frankfort, IL 60423, USA",,,
geneseo,illinois,41.4480902,-90.1542848,"425 S Oakwood Ave, Geneseo, IL 61254, USA",56,54,
geneva,illinois,41.8875281,-88.3053525,"102 W State St, Geneva, IL 60134, USA",80,76,
glen carbon village,illinois,38.7483814,-89.98315799999999,"194 S Main St, Glen Carbon, IL 62034, USA",35,55,
glen ellyn village,illinois,41.8775293,-88.0670118,"1984 N Main St, Glen Ellyn, IL 60137, USA",87,73,32
glenview village,illinois,42.0778065,-87.8223368,"2550 Park Ln, Glenview, IL 60025, USA",51,60,26
grayslake village,illinois,42.34446639999999,-88.04174599999999,"122 Center St, Grayslake, IL 60030, USA",70,58,
harvey,illinois,41.6100344,-87.6467131,"159 E 154th St, Harvey, IL 60426, USA",73,64,
highland park,illinois,42.1816918,-87.8003437,"Unnamed Road, Highland Park, IL 60035, United States",76,66,39
hinsdale village,illinois,41.8008642,-87.9370052,"Hinsdale/Madison, Hinsdale, IL 60521, USA",80,58,
homer glen village,illinois,41.6000317,-87.9381112,"159th/Hidden Valley, Homer Glen, IL 60491, USA",27,50,
huntley village,illinois,42.1680796,-88.4281415,"11105 IL-47, Huntley, IL 60142, USA",49,50,
la grange park village,illinois,41.8347535,-87.86172599999999,"1101 E 31st St, La Grange Park, IL 60526, USA",56,56,
la grange village,illinois,41.8050314,-87.8692254,"La Grange/47th, La Grange, IL 60525, USA",,,
lake forest,illinois,42.2586342,-87.840625,"1050 Griffith Rd, Lake Forest, IL 60045, USA",73,75,
lake zurich village,illinois,42.19696889999999,-88.0934108,"4 W Main St, Lake Zurich, IL 60047, USA",53,46,
lemont village,illinois,41.673642,-88.0017261,"204 Main St, Lemont, IL 60439, USA",55,50,
libertyville village,illinois,42.2830786,-87.9531303,"100N E Park Ave, Libertyville, IL 60048, USA",78,76,
lincoln,illinois,40.1483768,-89.3648183,"410 Broadway St, Lincoln, IL 62656, USA",80,68,
lincolnwood village,illinois,42.0044757,-87.73005940000002,"Lincoln/Pratt, Lincolnwood, IL 60712, USA",,,
lisle village,illinois,41.801141,-88.0747875,"Ogden/Main, Lisle, IL 60532, USA",52,53,
mahomet village,illinois,40.1953106,-88.40422339999999,"101 S Lincoln St, Mahomet, IL 61853, USA",50,46,
matteson village,illinois,41.5039235,-87.71310179999999,"3938 212th Pl, Matteson, IL 60443, USA",54,63,
maywood village,illinois,41.8791979,-87.8431155,"901 S 9th Ave, Maywood, IL 60153, USA",73,75,
mokena village,illinois,41.5261437,-87.8892189,"20003 Wolf Rd, Mokena, IL 60448, USA",48,50,
morton grove village,illinois,42.0405852,-87.78256209999999,"6225 Dempster Street, Morton Grove, IL 60053, USA",76,80,
morton village,illinois,40.6128161,-89.45926089999999,"404 N Main St, Morton, IL 61550, USA",,,
mount prospect village,illinois,42.0664167,-87.9372908,"Mont, Mt Prospect, IL 60056, United States",69,71,
naperville,illinois,41.7508391,-88.1535352,"1052 Alder Ln, Naperville, IL 60540, USA",52,57,19
new lenox village,illinois,41.5119761,-87.9656098,"102 S Cedar Rd, New Lenox, IL 60451, USA",52,47,
northbrook village,illinois,42.1275267,-87.82895479999999,"1345 1st St, Northbrook, IL 60062, USA",79,71,
oak brook village,illinois,41.8397865,-87.95355339999999,"1399 Kensington Rd, Oak Brook, IL 60523, USA",15,65,
orland park village,illinois,41.6303103,-87.85394250000002,"14300 96th Ave, Orland Park, IL 60462, USA",75,58,
palos heights,illinois,41.6680885,-87.7964416,"7152-7198 W 123rd St, Palos Heights, IL 60463, USA",67,67,
park forest village,illinois,41.4914236,-87.6744891,"2599 Western Ave, Park Forest, IL 60466, USA",31,51,
park ridge,illinois,42.0111412,-87.84061919999999,"9 S Greenwood Ave, Park Ridge, IL 60068, USA",82,68,
river forest village,illinois,41.8939617,-87.81984779999999,"753 Park Ave, River Forest, IL 60305, USA",33,55,
riverdale village,illinois,41.63336779999999,-87.6331021,"452 W 144th St, Riverdale, IL 60827, USA",55,54,
shorewood village,illinois,41.5200305,-88.2017293,"120 Picnic St, Shorewood, IL 60404, USA",61,59,
south holland village,illinois,41.6008681,-87.60698939999999,"439 E 162nd St, South Holland, IL 60473, USA",75,58,
vernon hills village,illinois,42.23933230000001,-87.9653565,"10 W Phillip Rd, Vernon Hills, IL 60061, USA",73,65,
washington,illinois,40.7036482,-89.4073123,"110 N Main St, Washington, IL 61571, USA",65,58,
waterloo,illinois,38.3358857,-90.1498341,"100 S Main St, Waterloo, IL 62298, USA",75,51,
waukegan,illinois,42.3636331,-87.84479379999999,"Jackson/Oak Crest, Waukegan, IL 60085, USA",65,58,
western springs village,illinois,41.8097532,-87.9006155,"914 Hillgrove Ave, Western Springs, IL 60558, USA",68,58,
wheaton,illinois,41.8661403,-88.1070127,"140 N Main St, Wheaton, IL 60187, USA",92,80,38
willowbrook,illinois,41.7697533,-87.9358931,"525-501 Ridgemoor Dr, Willowbrook, IL 60527, USA",32,45,
wilmette village,illinois,42.0722513,-87.7228384,"1900 Wilmette Ave, Wilmette, IL 60091, USA",75,68,
winfield village,illinois,41.8616956,-88.1609031,"0S024 E Street, Winfield, IL 60190, United States",27,36,
winnetka village,illinois,42.10808340000001,-87.735895,"606 Green Bay Rd, Winnetka, IL 60093, USA",81,77,
zion,illinois,42.4461322,-87.83285049999999,"Shiloh Park, 1619 27th St, Zion, IL 60099, USA",59,58,
anderson,indiana,40.1053196,-85.6802541,"30 W 11th St, Anderson, IN 46016, USA",71,82,
carmel,indiana,39.978371,-86.1180435,"599 E Main St, Carmel, IN 46032, USA",41,69,
dyer town,indiana,41.4942021,-87.52170679999999,"201 Joliet St, Dyer, IN 46311, USA",46,50,
east chicago,indiana,41.63920239999999,-87.4547635,"1318 E Columbus Dr, East Chicago, IN 46312, USA",57,59,
fishers town,indiana,39.9567548,-86.01335,"8787 E 116th St, Fishers, IN 46038, USA",57,77,
fort wayne,indiana,41.079273,-85.1393513,"803 S Calhoun St, Fort Wayne, IN 46802, USA",76,83,47
gary,indiana,41.6020403,-87.3371523,"10 E 5th Ave, Gary, IN 46402, USA",61,62,
hammond,indiana,41.5833688,-87.5000412,"7141 Columbia Ave, Hammond, IN 46324, USA",49,64,
indianapolis,indiana,39.768403,-86.158068,"Intl Airport - Zone 1 Ground Transportation Center, Indianapolis, IN 46204, USA",96,97,65
jasper,indiana,38.3914418,-86.9311094,"103 W 6th St, Jasper, IN 47546, USA",69,58,
jeffersonville,indiana,38.2775702,-85.7371847,"501 E Court Ave, Jeffersonville, IN 47130, USA",75,62,
merrillville town,indiana,41.4828144,-87.33281389999999,"25 Indian Trail, Merrillville, IN 46410, USA",32,44,
munster town,indiana,41.5644798,-87.5125412,"8205 Monroe Ave, Munster, IN 46321, USA",66,67,
north vernon,indiana,39.006165,-85.6235796,"ETC -1200 O&M Ave, North Vernon, IN 47265, United States",61,46,
westfield town,indiana,40.0428151,-86.1274888,"100 N Union St, Westfield, IN 46074, USA",53,67,
zionsville town,indiana,39.9508733,-86.261937,"76 S Main St, Zionsville, IN 46077, USA",67,65,
adel,iowa,41.6144325,-94.017453,"312 Nile Kinnick Dr S, Adel, IA 50003, USA",60,69,
albia,iowa,41.0300078,-92.811307,"219 B Ave W, Albia, IA 52531, USA",57,47,
algona,iowa,43.0699663,-94.233019,"415 E Call St, Algona, IA 50511, USA",73,59,
altoona,iowa,41.6435514,-93.4750836,"818 8th St SW, Altoona, IA 50009, USA",48,70,
ames,iowa,42.0307812,-93.6319131,"Brookside Park, 1325 6th St, Ames, IA 50010, USA",21,79,
anamosa,iowa,42.1083371,-91.2851594,"108 E Main St, Anamosa, IA 52205, USA",70,52,
ankeny,iowa,41.7317884,-93.6001278,"101 S Ankeny Blvd, Ankeny, IA 50023, USA",77,60,
atlantic,iowa,41.4036007,-95.0138776,"5 W 7th St, Atlantic, IA 50022, USA",75,50,
audubon,iowa,41.7180421,-94.9324868,"508 Market St, Audubon, IA 50025, USA",53,46,
belmond,iowa,42.84608,-93.6140991,"303 E Main St, Belmond, IA 50421, USA",54,66,
bettendorf,iowa,41.5262641,-90.5072573,"18 St & Grant St, Bettendorf, IA 52722, USA",60,57,
bloomfield,iowa,40.75168840000001,-92.4149074,"100 Courthouse Sq # 1, Bloomfield, IA 52537, Bloomfield, IA 52537, United States",,,
blue grass,iowa,41.5089194,-90.7659767,"101 W Mayne St, Blue Grass, IA 52726, USA",45,48,
boone,iowa,42.0597047,-93.8802273,"379 Story St, Boone, IA 50036, USA",81,55,
buffalo,iowa,41.4555873,-90.7209746,"326 Front St, Buffalo, IA 52728, USA",35,50,
burlington,iowa,40.8076529,-91.1128901,"1000-1098 Division St, Burlington, IA 52601, USA",70,49,
camanche,iowa,41.7853085,-90.2529064,"712 6th St, Camanche, IA 52730, USA",38,46,
carlisle,iowa,41.4986013,-93.4835466,"3 1/2 School St, Carlisle, IA 50047, USA",39,47,
carroll,iowa,42.0655986,-94.8672793,"529 N Main St, Carroll, IA 51401, USA",75,64,
carter lake,iowa,41.29055340000001,-95.9180689,"909 Willow Dr, Carter Lake, IA 51510, USA",28,49,
cedar falls,iowa,42.5348993,-92.4453161,"406 Main St, Cedar Falls, IA 50613, USA",74,86,
cedar rapids,iowa,41.9778795,-91.6656232,"310 3rd Ave SE, Cedar Rapids, IA 52401, USA",75,86,
centerville,iowa,40.7290565,-92.8738196,"603 S Main St, Centerville, IA 52544, USA",70,55,
chariton,iowa,41.0199996,-93.3140985,"1316 Commercial Ave, Chariton, IA 50049, USA",53,52,
charles city,iowa,43.0663612,-92.6724112,"105 Milwaukee St, Charles City, IA 50616, USA",75,61,
cherokee,iowa,42.7496413,-95.5515431,"107 S 2nd St, Cherokee, IA 51012, USA",67,58,
clarinda,iowa,40.7419352,-95.038313,"410 N 16th St, Clarinda, IA 51632, USA",53,48,
clarion,iowa,42.7316387,-93.732992,"100 S Main St, Clarion, IA 50525, USA",70,58,
clear lake,iowa,43.1435564,-93.3788108,"908 N 8th St, Clear Lake, IA 50428, USA",68,52,
clinton,iowa,41.8444735,-90.1887379,"221 2nd Ave S, Clinton, IA 52732, USA",77,63,
clive,iowa,41.6060873,-93.77236,"1538 Campus Dr, Clive, IA 50325, USA",43,57,
colfax,iowa,41.67707619999999,-93.2451249,"1, Colfax, IA 50054, United States",55,43,
coralville,iowa,41.6822756,-91.5960643,"800 22nd Ave, Coralville, IA 52241, USA",62,64,
council bluffs,iowa,41.2619444,-95.8608333,"1146-1198, US-6, Council Bluffs, IA 51501, United States",69,86,
cresco,iowa,43.3813568,-92.1140547,"757 N Elm St, Cresco, IA 52136, USA",41,45,
creston,iowa,41.0586002,-94.3613474,"101 E Montgomery St, Creston, IA 50801, USA",74,60,
davenport,iowa,41.5236437,-90.5776367,"416 N Harrison St, Davenport, IA 52801, USA",88,66,
de witt,iowa,41.8239952,-90.5389662,"827 6th Ave, DeWitt, IA 52742, USA",74,58,
decorah,iowa,43.30330559999999,-91.7857092,"118 Washington St, Decorah, IA 52101, USA",82,80,
denison,iowa,42.024988,-95.3588867,"1014 Oakwood Dr, Denison, IA 51442, USA",34,32,
des moines,iowa,41.5868353,-93.6249593,"Equitable Building, 604 Locust St, Des Moines, IA 50309, USA",90,66,
dubuque,iowa,42.5005583,-90.6645718,"698 Central Ave, Dubuque, IA 52001, USA",89,66,
dyersville,iowa,42.4836415,-91.1140899,"902 2nd Ave SE, Dyersville, IA 52040, USA",39,47,
eagle grove,iowa,42.6641396,-93.9044473,"223 W Broadway St, Eagle Grove, IA 50533, USA",61,57,
eldridge,iowa,41.65808639999999,-90.5845822,"310 N 2nd St, Eldridge, IA 52748, USA",58,67,
emmetsburg,iowa,43.1127427,-94.6830357,"801 Lawler St, Emmetsburg, IA 50536, USA",62,51,
estherville,iowa,43.4013478,-94.8391532,"308 Central Avenue, Estherville, IA 51334, USA",58,57,
evansdale,iowa,42.4691543,-92.281017,"462 Grand Blvd, Evansdale, IA 50707, USA",35,73,
fairfield,iowa,41.00761139999999,-91.9636914,"302 1/2 E Broadway Ave, Fairfield, IA 52556, USA",86,69,
forest city,iowa,43.2624685,-93.6371937,"145 S 4th St, Forest City, IA 50436, USA",68,59,
fort dodge,iowa,42.4974694,-94.1680158,"802 S 22nd St, Fort Dodge, IA 50501, USA",48,50,
fort madison,iowa,40.6297634,-91.314535,"712 9th St, Fort Madison, IA 52627, USA",68,63,
garner,iowa,43.1023343,-93.6020858,"2525 Taft Ave, Garner, IA 50438, USA",50,50,
glenwood,iowa,41.0469437,-95.7425056,"418 E Sharp St, Glenwood, IA 51534, USA",73,48,
grinnell,iowa,41.74340919999999,-92.7232456,"210 4th Ave Ahrens Medical Arts Building, 2nd Floor, Grinnell, IA 50112, United States",83,93,
grundy center,iowa,42.3616501,-92.7685327,"401 G Ave, Grundy Center, IA 50638, USA",59,60,
hampton,iowa,42.7425009,-93.2103402,"212 1st Ave NW, Hampton, IA 50441, USA",79,57,
harlan,iowa,41.653044,-95.3255541,"1603 12th St, Harlan, IA 51537, USA",47,39,
hawarden,iowa,42.9963772,-96.4891976,"414 10th St, Hawarden, IA 51023, USA",49,49,
hiawatha,iowa,42.0491958,-91.6815252,"1125 Dina Ct, Hiawatha, IA 52233, USA",25,56,
humboldt,iowa,42.7208047,-94.2152402,"11 timber rdg, Humboldt, IA 50548, USA",72,62,
independence,iowa,42.4685978,-91.8893386,"520 1st St E, Independence, IA 50644, USA",67,59,
indianola,iowa,41.3580484,-93.5574376,"311 E 2nd Ave, Indianola, IA 50125, USA",66,59,
iowa city,iowa,41.6611277,-91.5301683,"10 S Gilbert St, Iowa City, IA 52240, USA",93,79,
iowa falls,iowa,42.51988679999999,-93.2645741,"606 Washington Ave, Iowa Falls, IA 50126, USA",74,34,
jefferson,iowa,42.0172457,-94.3774232,"303 N Elm St, Jefferson, IA 50129, USA",74,61,
johnston,iowa,41.6709834,-93.7130493,"6750 Pioneer Pkwy, Johnston, IA 50131, USA",12,41,
keokuk,iowa,40.4044731,-91.3963966,"211 S 18th St, Keokuk, IA 52632, USA",50,57,
lake city,iowa,42.2674828,-94.7338704,"101 N Center St, Lake City, IA 51449, USA",,,
lansing,iowa,43.3609053,-91.218768,"400 Center St, Lansing, IA 52151, USA",,,
le claire,iowa,41.5975061,-90.3462215,"226 Wisconsin St, Le Claire, IA 52753, USA",56,36,
le mars,iowa,42.79415669999999,-96.1655778,"43 1st Ave NE, Le Mars, IA 51031, USA",84,57,
leon,iowa,40.739724,-93.7477217,"20451 262nd Ave, Leon, IA 50144, United States",45,44,
lisbon,iowa,41.9211198,-91.3854466,"101 E Main St, Lisbon, IA 52253, USA",42,45,
manchester,iowa,42.4857853,-91.4579698,"605 N New St, Manchester, IA 52057, USA",73,59,
maquoketa,iowa,42.0689088,-90.6656914,"110 S Main St, Maquoketa, IA 52060, USA",78,60,
marengo,iowa,41.7927817,-92.0696253,"131 E Miller St, Marengo, IA 52301, USA",35,49,
marion,iowa,42.033279,-91.5968958,"1129 US-151 BUS, Marion, IA 52302, USA",72,65,
marshalltown,iowa,42.0494674,-92.9080375,"4 N 3rd Ave, Marshalltown, IA 50158, USA",86,64,
mason city,iowa,43.1535728,-93.2010367,"124 N Federal Ave, Mason City, IA 50401, USA",79,85,
missouri valley,iowa,41.5563713,-95.8877767,"118 S 6th St, Missouri Valley, IA 51555, USA",50,36,
monticello,iowa,42.23833510000001,-91.1870937,"301 E 1st St, Monticello, IA 52310, USA",69,56,
mount pleasant,iowa,40.9716959,-91.5487714,"500 N Lincoln St, Mt Pleasant, IA 52641, USA",67,60,
mount vernon,iowa,41.9219522,-91.4168371,"108 1st St E, Mt Vernon, IA 52314, USA",73,51,
muscatine,iowa,41.424473,-91.0432051,"401 E 3rd St, Muscatine, IA 52761, USA",85,77,
nevada,iowa,42.0227184,-93.4523014,"Lincoln Highway &, 6th St, Nevada, IA 50201, USA",,,
new hampton,iowa,43.0592724,-92.317864,"200 W Main St, New Hampton, IA 50659, USA",65,56,
newton,iowa,41.7033177,-93.05735330000002,"420 W 4th St N, Newton, IA 50208, USA",68,53,
north liberty,iowa,41.739482,-91.6080974,"465 Hwy 965, North Liberty, IA 52317, USA",50,75,
norwalk,iowa,41.47554600000001,-93.6788304,"1099-801 Main St, Norwalk, IA 50211, USA",54,54,
oelwein,iowa,42.6784949,-91.9119586,"25 E Charles St, Oelwein, IA 50662, USA",76,59,
ogden,iowa,42.0395595,-94.0320167,"341 W Walnut St, Ogden, IA 50212, USA",47,53,
onawa,iowa,42.0266548,-96.0972376,"1013 10th St, Onawa, IA 51040, USA",72,66,
orange city,iowa,43.0072087,-96.0583523,"122 Central Ave NW, Orange City, IA 51041, USA",76,70,
osage,iowa,43.2841382,-92.8190838,"205 Main St, Osage, IA 50461, USA",59,59,
osceola,iowa,41.0342618,-93.766759,"100 S Main St, Osceola, IA 50213, USA",76,57,
oskaloosa,iowa,41.2916728,-92.6493595,"412 4th Ave W, Oskaloosa, IA 52577, USA",78,64,
ottumwa,iowa,41.01602930000001,-92.4083022,"347 2nd St E, Ottumwa, IA 52501, USA",73,43,
pella,iowa,41.4080327,-92.916405,"836 Main St, Pella, IA 50219, USA",66,67,
perry,iowa,41.8385964,-94.1071797,"1918 Willis Ave, Perry, IA 50220, USA",74,76,
pleasant hill,iowa,41.5873903,-93.5196138,"4801 E Oakwood Dr, Pleasant Hill, IA 50327, USA",17,28,
polk city,iowa,41.7713764,-93.7129997,"113 W Broadway St, Polk City, IA 50226, USA",42,40,
postville,iowa,43.084702,-91.5682015,"1245, Postville, IA 52162, USA",,,
prairie city,iowa,41.599434,-93.2352053,"200 Marshall St N, Prairie City, IA 50228, USA",39,48,
red oak,iowa,41.0170937,-95.2214477,"909 Chautauqua Dr, Red Oak, IA 51566, USA",31,23,
rock valley,iowa,43.2052594,-96.2950263,"1501 Main St, Rock Valley, IA 51247, USA",49,54,
sac city,iowa,42.42220330000001,-94.9897109,"500 W Main St, Sac City, IA 50583, USA",38,44,
sergeant bluff,iowa,42.40298019999999,-96.3588424,"305 E St, Sergeant Bluff, IA 51054, USA",47,56,
sheldon,iowa,43.1812107,-95.8569539,"5321 W 9th St, Sheldon, IA 51201, USA",57,62,
shenandoah,iowa,40.7667389,-95.3761506,"101 N Railroad St, Shenandoah, IA 51601, USA",49,54,
sigourney,iowa,41.3333445,-92.2046255,"101 S Main St, Sigourney, IA 52591, USA",56,52,
sioux center,iowa,43.0797991,-96.1756935,"958 N Main Ave, Sioux Center, IA 51250, USA",75,60,
sioux city,iowa,42.4963416,-96.4049408,"600 Pierce St, Sioux City, IA 51101, USA",87,66,
spencer,iowa,43.1450748,-95.144318,"717 Grand Ave, Spencer, IA 51301, USA",86,61,
spirit lake,iowa,43.4226192,-95.1022313,"1723 Hill Ave, Spirit Lake, IA 51360, USA",72,71,
state center,iowa,42.0166544,-93.1635365,"100-198 E Main St, State Center, IA 50247, USA",55,49,
storm lake,iowa,42.6430359,-95.2019399,"104 W Railroad St, Storm Lake, IA 50588, USA",84,72,
story city,iowa,42.1871601,-93.5955532,"603 Broad St, Story City, IA 50248, USA",49,54,
tama,iowa,41.9627392,-92.576753,"419 State St, Tama, IA 52339, USA",54,59,
tipton,iowa,41.7697434,-91.1279349,"400 Cedar St, Tipton, IA 52772, USA",71,61,
toledo,iowa,41.9972134,-92.5835266,"108 S West St, Toledo, IA 52342, USA",33,40,
urbandale,iowa,41.6266555,-93.7121656,"3411 70th St, Urbandale, IA 50322, USA",63,56,
vinton,iowa,42.1646477,-92.0185651,"503 E 8th St, Vinton, IA 52349, USA",65,54,
walcott,iowa,41.585543,-90.7743819,"103 S Main St, Walcott, IA 52773, USA",37,48,
washington,iowa,41.30140770000001,-91.6916417,"116 E 3rd St, Washington, IA 52353, USA",77,63,
waterloo,iowa,42.492786,-92.3425775,"503 W 4th St, Waterloo, IA 50701, USA",87,89,
waukee,iowa,41.6119903,-93.8855768,"243-299 6th St, Waukee, IA 50263, USA",40,59,
waukon,iowa,43.2694208,-91.47569500000002,"3 W Main St, Waukon, IA 52172, USA",62,49,
waverly,iowa,42.7272032,-92.4668511,"303 1st Ave NE, Waverly, IA 50677, USA",61,73,
webster city,iowa,42.4694321,-93.8159149,"401 2nd St, Webster City, IA 50595, USA",,,
west branch,iowa,41.6714086,-91.3465521,"109 W Main St, West Branch, IA 52358, USA",57,50,
west burlington,iowa,40.8250386,-91.1565357,"122 Broadway St, West Burlington, IA 52655, USA",40,50,
west des moines,iowa,41.5638902,-93.7593841,"4200 Mills Civic Pkwy, West Des Moines, IA 50265, USA",18,32,
west liberty,iowa,41.5700231,-91.2637695,"105 W 3rd St, West Liberty, IA 52776, USA",58,62,
williamsburg,iowa,41.6611187,-92.0090673,"500-598 Court St, Williamsburg, IA 52361, USA",,,
wilton,iowa,41.5889154,-91.0168179,"101 W 4th St, Wilton, IA 52778, USA",51,50,
windsor heights,iowa,41.6038268,-93.7105118,"6709 Forest Ct, Windsor Heights, IA 50324, USA",63,45,
winterset,iowa,41.3308237,-94.0138393,"60 E Grade St, Winterset, IA 50273, USA",75,50,
abilene,kansas,38.9172216,-97.2139094,"210 N Buckeye Ave, Abilene, KS 67410, USA",62,54,
anthony,kansas,37.1533554,-98.0311727,"121 W Steadman St, Anthony, KS 67003, USA",60,55,
augusta,kansas,37.6866844,-96.9767023,"1201 Osage St, Augusta, KS 67010, USA",48,48,
basehor,kansas,39.1416692,-94.9385762,"2948 155th St, Basehor, KS 66007, USA",22,34,
belleville,kansas,39.8244501,-97.6325415,"1119 18th St, Belleville, KS 66935, USA",55,53,
beloit,kansas,39.45611780000001,-98.1061595,"400 River St, Beloit, KS 67420, USA",35,45,
benton,kansas,37.7889039,-97.1086498,"111 S Main St, Benton, KS 67017, USA",5,31,
burlington,kansas,38.1944667,-95.74276410000002,"626 Neosho St, Burlington, KS 66839, USA",39,47,
clay center,kansas,39.3769407,-97.1247428,"608 Court St, Clay Center, KS 67432, USA",66,59,
clearwater,kansas,37.5027959,-97.504492,"150 Lee Ave, Clearwater, KS 67026, USA",39,46,
colby,kansas,39.3958369,-101.0523773,"320 N Grant Ave, Colby, KS 67701, USA",45,51,
columbus,kansas,37.1692278,-94.8441239,"223 S Pennsylvania Ave, Columbus, KS 66725, USA",47,50,
colwich,kansas,37.7791785,-97.5364351,"104 Chicago Ave, Colwich, KS 67030, USA",36,40,
conway springs,kansas,37.3902975,-97.6422723,"124 E Spring Ave, Conway Springs, KS 67031, USA",39,47,
council grove,kansas,38.6611187,-96.4919473,"28 N Mission St, Council Grove, KS 66846, USA",52,56,
derby,kansas,37.5455735,-97.2689331,"P.O. Box 97, Derby, KS 67037, United States",52,52,
ellinwood,kansas,38.3555675,-98.5809106,"112 N Main St, Ellinwood, KS 67526, USA",43,49,
ellis,kansas,38.9380662,-99.56066690000002,"912 Washington St, Ellis, KS 67637, USA",49,49,
ellsworth,kansas,38.7305648,-98.2281126,"408 N Lincoln Ave, Ellsworth, KS 67439, USA",46,50,
eudora,kansas,38.9433372,-95.0985807,"900 Blk Main St, Eudora, KS 66025, USA",58,41,
fredonia,kansas,37.5339386,-95.8266483,"421 N 7th St, Fredonia, KS 66736, USA",47,53,
gardner,kansas,38.8108408,-94.9271868,"On Center at Main Northbound Nearside, Gardner, KS 66030, USA",57,54,
garnett,kansas,38.2805772,-95.2419192,"411 S Oak St, Garnett, KS 66032, USA",60,72,
girard,kansas,37.5111596,-94.8380215,"402 E Forest Ave, Girard, KS 66743, USA",40,50,
goddard,kansas,37.6597363,-97.5753256,"319 N Main St, Goddard, KS 67052, USA",46,45,
halstead,kansas,38.0014004,-97.5086518,"220 W 5th St, Halstead, KS 67056, USA",45,57,
haven,kansas,37.8989003,-97.7828272,"209 S Kansas Ave, Haven, KS 67543, USA",36,46,
herington,kansas,38.671119,-96.9425139,"17 E Main St, Herington, KS 67449, USA",52,55,
hesston,kansas,38.1383437,-97.4314267,"100 N Main St, Hesston, KS 67062, USA",59,65,
hiawatha,kansas,39.8525033,-95.5358156,"PO Box 295, Hiawatha, KS 66434, United States",38,50,
hillsboro,kansas,38.3519555,-97.2044723,"202 S Main St, Hillsboro, KS 67063, USA",69,61,
holcomb,kansas,37.9861353,-100.989333,"100 N Henderson St, Holcomb, KS 67851, USA",26,46,
holton,kansas,39.4652724,-95.7363723,"208 W 5th St, Holton, KS 66436, USA",62,53,
inman,kansas,38.2319537,-97.7733809,"217 E Center St, Inman, KS 67546, USA",57,56,
junction city,kansas,39.0286093,-96.8313978,"138 W 6th St, Junction City, KS 66441, USA",79,64,
kansas city,kansas,39.11553139999999,-94.6267873,"On Minnesota Ave at 7th Street WB, Kansas City, KS 66101, USA",84,58,40
kingman,kansas,37.6458491,-98.1136734,"425 N Main St, Kingman, KS 67068, USA",51,53,
lansing,kansas,39.2486126,-94.9002413,"112 S Main St, Lansing, KS 66043, USA",39,34,
lenexa,kansas,38.9536174,-94.7335709,"9620 Rosehill Rd, Lenexa, KS 66215, USA",45,51,
liberal,kansas,37.0430812,-100.920999,"25 E 5th St, Liberal, KS 67901, USA",75,61,
lindsborg,kansas,38.5736176,-97.6744838,"125 E Lincoln St, Lindsborg, KS 67456, USA",64,80,
maize,kansas,37.7791787,-97.4672674,"221 N Queen St, Maize, KS 67101, USA",20,39,
marion,kansas,38.3483493,-97.017245,"500 E Main St, Marion, KS 66861, USA",50,43,
marysville,kansas,39.8411129,-96.647242,"109 S 9th St, Marysville, KS 66508, USA",66,62,
mcpherson,kansas,38.3708415,-97.6642087,"211 N Elm St, McPherson, KS 67460, USA",79,61,
meade,kansas,37.2855796,-100.3401456,"54 E Carthage St, Meade, KS 67864, USA",53,50,
minneapolis,kansas,39.1219448,-97.7067028,"703 A West Industrial Rd, Minneapolis, KS 67467, United States",41,41,
mission,kansas,39.0277832,-94.6557914,"6100 W 56th St, Mission, KS 66202, USA",63,48,
mulvane,kansas,37.474464,-97.2439325,"Unnamed Road, Mulvane, KS 67110, United States",45,49,
newton,kansas,38.0466779,-97.3450365,"413 N Main St, Newton, KS 67114, USA",77,70,
norton,kansas,39.8338946,-99.8915113,"307 W Wilton St, Norton, KS 67654, USA",59,52,
oakley,kansas,39.1270975,-100.8479688,"229 Price Ave, Oakley, KS 67748, USA",53,51,
oberlin,kansas,39.81833839999999,-100.528201,"218 S Griffith Ave, Oberlin, KS 67749, USA",42,49,
olathe,kansas,38.8813958,-94.8191285,"126 S Cherry St, Olathe, KS 66061, USA",63,59,18
osage city,kansas,38.6338981,-95.8258207,"101-199 S 6th St, Osage City, KS 66523, USA",54,58,
oskaloosa,kansas,39.215277,-95.3127498,"209 Jefferson St, Oskaloosa, KS 66066, USA",51,44,
overland park,kansas,38.9822282,-94.6707917,"7319 W 81st St, Overland Park, KS 66204, USA",84,55,25
ozawkie,kansas,39.2333317,-95.4669194,"404 Sioux Dr, Ozawkie, KS 66070, USA",,,
paola,kansas,38.5722353,-94.8791294,"14 S Silver St, Paola, KS 66071, USA",63,52,
perry,kansas,39.0758335,-95.3933077,"204 E 3rd St, Perry, KS 66073, USA",,,
plainville,kansas,39.2347323,-99.2981556,"102 N Washington St, Plainville, KS 67663, USA",47,48,
prairie village,kansas,38.9916726,-94.6335684,"7500 Mission Rd, Prairie Village, KS 66208, USA",29,34,
pratt,kansas,37.6439071,-98.7375911,"212 E 3rd St, Pratt, KS 67124, USA",64,57,
rose hill,kansas,37.5583517,-97.1350405,"202 S Rose Hill Rd, Rose Hill, KS 67133, USA",37,44,
sabetha,kansas,39.9022223,-95.8008225,"823 Virginia St, Sabetha, KS 66534, USA",52,54,
scott city,kansas,38.4825192,-100.9070949,"425 Main St, Scott City, KS 67871, USA",45,57,
sedgwick,kansas,37.9166784,-97.422541,"418 N Washington Ave, Sedgwick, KS 67135, USA",,,
seneca,kansas,39.834165,-96.0641676,"532 Main St, Seneca, KS 66538, USA",63,55,
sterling,kansas,38.2100111,-98.2070059,"101 S Broadway Ave, Sterling, KS 67579, USA",55,55,
tonganoxie,kansas,39.109724,-95.0877465,"427 E 4th St, Tonganoxie, KS 66086, USA",39,45,
valley center,kansas,37.8347342,-97.3733759,"231 N Park Ave, Valley Center, KS 67147, USA",44,49,
valley falls,kansas,39.3433316,-95.460253,"601 Elm St, Valley Falls, KS 66088, USA",32,39,
wamego,kansas,39.2019412,-96.3049975,"430 KS-99, Wamego, KS 66547, USA",54,55,
wellsville,kansas,38.7183422,-95.0816354,"601 Main St, Wellsville, KS 66092, USA",31,46,
wichita,kansas,37.68717609999999,-97.330053,"128 N Santa Fe St, Wichita, KS 67202, USA",75,66,
winfield,kansas,37.2397486,-96.9955918,"205 E 9th Ave, Winfield, KS 67156, USA",73,60,
yates center,kansas,37.8811472,-95.7333175,"118 W Rutledge St, Yates Center, KS 66783, USA",33,42,
alexandria,kentucky,38.9595078,-84.3879946,"8321 E Main St, Alexandria, KY 41001, USA",33,35,
benton,kentucky,36.85727809999999,-88.350315,"1101 Main St, Benton, KY 42025, USA",44,38,
corbin,kentucky,36.9486986,-84.0968761,"1708 Forest Dr Suites 102 & 1031, Corbin, KY 40701, United States",46,46,
covington,kentucky,39.0836712,-84.5085536,"3rd floor, 230 Madison Ave, Covington, KY 41011, United States",91,66,54
fort thomas,kentucky,39.07506070000001,-84.4471633,"310 S Ft Thomas Ave, Fort Thomas, KY 41075, USA",52,47,
hopkinsville,kentucky,36.8656008,-87.4886186,"104 E 9th St, Hopkinsville, KY 42240, USA",73,59,
independence,kentucky,38.94311829999999,-84.54410899999999,"5278 Madison Pike, Independence, KY 41051, USA",17,22,
la grange,kentucky,38.4075666,-85.37884679999999,"100 E Main St, La Grange, KY 40031, USA",75,53,
lexington-fayette urban county,kentucky,38.0405837,-84.5037164,"404 S Limestone, Lexington, KY 40508, USA",85,85,54
mount washington,kentucky,38.0500627,-85.54578769999999,"350 N Bardstown Rd, Mt Washington, KY 40047, USA",56,51,
prospect,kentucky,38.345068,-85.615517,"US 42 @ Prospect Point, Prospect, KY 40059, USA",39,38,
radcliff,kentucky,37.8403456,-85.9491298,"624 Elm Rd, Radcliff, KY 40160, USA",51,47,
uniontown,kentucky,37.7753214,-87.93058270000002,"235 Division St, Uniontown, KY 42461, USA",,,
versailles,kentucky,38.05257599999999,-84.7299464,"106 S Main St, Versailles, KY 40383, USA",61,53,
alexandria,louisiana,31.3112936,-92.4451371,"934 3rd St, Alexandria, LA 71301, USA",57,85,
