city,state,latitude,longitude,reverse_address,walkscore,bikescore,transitscore
abbeville,alabama,31.5718352,-85.2504893,"125 Court Sq, Abbeville, AL 36310, USA",45,48,
adamsville,alabama,33.6009389,-86.9561059,"5005 Bankhead Hwy, Adamsville, AL 35005, USA",16,28,
addison town,alabama,34.2023243,-87.1814012,"16262 Co Rd 41, Addison, AL 35540, USA",24,44,
alabaster,alabama,33.2442813,-86.8163773,"111 1st St N, Alabaster, AL 35007, USA",47,28,
albertville,alabama,34.2675937,-86.20886689999999,"124 S Broad St, Albertville, AL 35950, USA",67,50,
alexander city,alabama,32.944012,-85.9538532,"63 Court Square, Alexander City, AL 35010, USA",60,53,
aliceville,alabama,33.1295681,-88.15141659999999,"17 3rd Ave NE, Aliceville, AL 35442, USA",49,54,
andalusia,alabama,31.3085039,-86.48329129999999,"105 Oneal Ct, Andalusia, AL 36420, USA",57,47,
anniston,alabama,33.6598257,-85.8316318,"1200 Gurnee Ave, Anniston, AL 36201, USA",62,47,
arab,alabama,34.31814970000001,-86.4958219,"127 N Main St, Arab, AL 35016, USA",50,45,
ardmore town,alabama,34.9840722,-86.8396032,"26894 6th St, Ardmore, AL 35739, USA",19,33,
argo town,alabama,33.6884778,-86.5021814,"1060 Mason Cir, Odenville, AL 35120, USA",0,,
ashford town,alabama,31.1829562,-85.23632099999999,"404 N Broadway St, Ashford, AL 36312, USA",34,37,
ashland town,alabama,34.799257,-86.5161018,"106 Adrian Dr, Huntsville, AL 35811, USA",8,19,
ashville,alabama,33.8370433,-86.2544223,"35755 US-231, Ashville, AL 35953, USA",21,28,
athens,alabama,34.8028661,-86.9716741,"200 W Washington St, Athens, AL 35611, USA",71,62,
atmore,alabama,31.0237921,-87.4938708,"101 Main St, Atmore, AL 36502, USA",53,54,
attalla,alabama,34.0217639,-86.0885852,"11286 US-278, Altoona, AL 35952, USA",51,48,
auburn,alabama,32.6098566,-85.48078249999999,"224 N College St, Auburn, AL 36830, USA",79,67,
bay minette,alabama,30.8829628,-87.7730474,"119 Courthouse Square, Bay Minette, AL 36507, USA",51,51,
bayou la batre,alabama,30.4069515,-88.26071879999999,"9275 Bryant Ave, Bayou La Batre, AL 36509, USA",9,28,
bear creek town,alabama,34.2748197,-87.7005833,"8281 AL-13, Bear Creek, AL 35543, USA",19,25,
bessemer,alabama,33.4017766,-86.954437,"1800 3rd Ave N, Bessemer, AL 35020, USA",73,50,
birmingham,alabama,33.5185892,-86.8103567,"595 19th St N, Birmingham, AL 35203, USA",77,63,57
blountsville town,alabama,34.0814863,-86.5911026,"10017 Lee St W, Blountsville, AL 35031, USA",35,38,
boaz,alabama,34.2031662,-86.15209689999999,"1134 US-431, Boaz, AL 35957, USA",48,42,
brent,alabama,32.9373463,-87.1647184,"2291 Main St, Brent, AL 35034, USA",20,34,
brewton,alabama,31.1051779,-87.0721918,"215 Sebren Ln, Brewton, AL 36426, USA",39,44,
bridgeport,alabama,34.9475807,-85.7144155,"4 alley boards 35740 Pacé, Bridgeport, AL 35740, United States",26,31,
brighton,alabama,33.4342755,-86.9472148,"4200 Huntsville Ave, Brighton, AL 35020, USA",14,8,
brilliant town,alabama,34.0253797,-87.7583574,"3 Carlee St, Brilliant, AL 35548, USA",21,25,
brookwood town,alabama,33.2556719,-87.3208336,"15893 AL-216, Brookwood, AL 35444, USA",32,19,
butler town,alabama,32.0895908,-88.2219652,"119 W Pushmataha St, Butler, AL 36904, USA",44,38,
calera,alabama,33.1028965,-86.7535975,"8250 US-31, Calera, AL 35040, USA",49,50,
camden,alabama,31.9909813,-87.2905456,"103 Union St, Camden, AL 36726, USA",35,34,
camp hill town,alabama,32.8004059,-85.65356589999999,"230-236 Holley Ave, Camp Hill, AL 36850, USA",4,22,
carbon hill,alabama,33.89177420000001,-87.52612359999999,"459 NE 1st Ave, Carbon Hill, AL 35549, USA",23,28,
carrollton town,alabama,33.2617871,-88.0950263,"212 Sanders St, Carrollton, AL 35447, USA",15,39,
cedar bluff town,alabama,34.2200942,-85.6077402,"3460 Old Hwy 9, Cedar Bluff, AL 35959, USA",41,40,
centre,alabama,34.1520406,-85.67885310000001,"101 E Main St, Centre, AL 35960, USA",40,32,
chatom town,alabama,31.4651653,-88.2544557,"16835 Jordan St, Chatom, AL 36518, USA",30,34,
cherokee town,alabama,34.7570342,-87.9728143,"180 Main St, Cherokee, AL 35616, USA",33,26,
chickasaw,alabama,30.7637991,-88.0747222,"201 N Craft Hwy, Chickasaw, AL 36611, USA",50,38,
childersburg,alabama,33.2781686,-86.3549774,"101 8th Ave SW, Childersburg, AL 35044, USA",48,51,
citronelle,alabama,31.0907338,-88.2280622,"7835 State St, Citronelle, AL 36522, USA",18,27,
clanton,alabama,32.8387371,-86.6294262,"100-198 6th St N, Clanton, AL 35045, USA",43,43,
clay,alabama,33.7026013,-86.5997096,"6811 Old Springville Rd, Dixiana, AL 35126, USA",30,10,
clayton town,alabama,31.8782162,-85.44966269999999,"2 Court Square, Clayton, AL 36016, USA",29,26,
coaling town,alabama,33.1590078,-87.340834,"15311 Perry Foster Rd, Cottondale, AL 35453, USA",8,21,
columbiana,alabama,33.1781718,-86.6072054,"206 Hwy 47, Columbiana, AL 35051, USA",51,44,
coosada town,alabama,32.4979127,-86.33136019999999,"5950 Coosada Rd, Coosada, AL 36020, USA",6,27,
cordova,alabama,33.7598291,-87.18333489999999,"105 Burlington Ave, Cordova, AL 35550, USA",45,26,
cottonwood town,alabama,31.0487933,-85.3049326,"14 Lewis St, Cottonwood, AL 36320, USA",27,27,
creola,alabama,30.8918509,-88.03972130000001,"210 US-43, Creola, AL 36525, USA",19,31,
crossville town,alabama,34.2875925,-85.99414,"34 Justice St, Crossville, AL 35962, USA",42,41,
cullman,alabama,34.1748208,-86.8436124,"300 2nd Ave SW, Cullman, AL 35055, USA",72,57,
dadeville,alabama,32.831238,-85.76356919999999,"266 Bryan St, Dadeville, AL 36853, USA",49,47,
daleville,alabama,31.3101719,-85.7129908,"221 Daleville Ave, Daleville, AL 36322, USA",51,53,
daphne,alabama,30.6035255,-87.9036047,"706 Belrose Ave, Daphne, AL 36526, USA",58,70,
dauphin island town,alabama,30.2542565,-88.1124155,"200 Lemoyne Dr, Dauphin Island, AL 36528, USA",47,69,
decatur,alabama,34.6059253,-86.9833417,"477-499 Lee St NE, Decatur, AL 35601, USA",73,65,
demopolis,alabama,32.5176361,-87.83640199999999,"121 E Washington St, Demopolis, AL 36732, USA",45,46,
dora,alabama,33.728717,-87.0902772,"2500 Sharon Blvd, Dora, AL 35062, USA",10,19,
dothan,alabama,31.2232313,-85.3904888,"214 E Main St, Dothan, AL 36301, USA",69,59,
double springs town,alabama,34.1464916,-87.40223859999999,"14380 Main St, Double Springs, AL 35553, USA",17,27,
douglas town,alabama,34.1737065,-86.3235926,"14 AL-168, Horton, AL 35980, USA",21,28,
east brewton,alabama,31.0932339,-87.0627468,"702 Forrest Ave, Brewton, AL 36426, USA",29,46,
eclectic town,alabama,32.6354093,-86.03440789999999,"140 1st Ave, Eclectic, AL 36024, USA",35,35,
elba,alabama,31.4146108,-86.0677243,"603 Simmons St, Elba, AL 36323, USA",43,40,
enterprise,alabama,31.3151708,-85.85521609999999,"201 N Main St, Enterprise, AL 36330, USA",58,47,
eufaula,alabama,31.8912717,-85.1454876,"79 S Eufaula Ave, Eufaula, AL 36027, USA",65,45,
eutaw town,alabama,32.8406848,-87.8875145,"400 Morrow Ave, Eutaw, AL 35462, USA",45,51,
evergreen,alabama,31.4341907,-86.9545924,"105 Rural St, Evergreen, AL 36401, USA",38,42,
fairfield,alabama,33.4859402,-86.91193659999999,"420 52nd St Ensley, Fairfield, AL 35064, USA",40,22,
fairhope,alabama,30.5229719,-87.9033261,"22765, Fairhope, AL 36532, United States",75,64,
falkville town,alabama,34.3684295,-86.908616,"4685 US-31, Falkville, AL 35622, USA",30,35,
fayette,alabama,33.6845539,-87.8308522,"101 Temple Ave S, Fayette, AL 35555, USA",55,44,
flomaton town,alabama,31.000182,-87.260807,"314 Houston St, Flomaton, AL 36441, USA",40,35,
florala town,alabama,31.00518,-86.3280018,"22664 Wall St, Florala, AL 36442, USA",51,55,
florence,alabama,34.79981,-87.677251,"116 W Tennessee St, Florence, AL 35630, USA",80,55,
foley,alabama,30.4065868,-87.6835974,"104 N McKenzie St, Foley, AL 36535, USA",52,54,
fort payne,alabama,34.4442547,-85.7196893,"500 Gault Ave N, Fort Payne, AL 35967, USA",64,55,
fultondale,alabama,33.6102837,-86.7967857,"1521 Decatur Hwy, Coalburg, AL 35068, USA",53,34,
fyffe town,alabama,34.446755,-85.90413950000001,"970 Main St, Fyffe, AL 35971, USA",34,34,
gadsden,alabama,34.014264,-86.0066386,"600 Broad St, Gadsden, AL 35901, USA",81,53,
gardendale,alabama,33.6601033,-86.8127702,"1416 Main St, Gardendale, AL 35071, USA",46,42,
geneva,alabama,31.0329572,-85.8638242,"800-804 E Town Ave, Geneva, AL 36340, USA",42,39,
georgiana town,alabama,31.6371028,-86.7419175,"100 Mill St, Georgiana, AL 36033, USA",26,38,
geraldine town,alabama,34.3514798,-86.00080779999999,"57 Old Mill Rd, Geraldine, AL 35974, USA",11,37,
glencoe,alabama,33.957043,-85.93246979999999,"200 N College St, Gadsden, AL 35905, USA",28,35,
goodwater town,alabama,33.065675,-86.0533013,"64 Hotel St, Goodwater, AL 35072, USA",13,16,
grant town,alabama,33.540939,-85.94996739999999,"753 Jenifer Rd, Munford, AL 36268, USA",1,20,
greenville,alabama,31.8295972,-86.6177517,"710 Court Square, Greenville, AL 36037, USA",55,35,
guin,alabama,33.9656594,-87.91474939999999,"252 13th Ave W, Guin, AL 35563, USA",43,43,
gulf shores,alabama,30.2460361,-87.70081929999999,"723 W Beach Blvd, Gulf Shores, AL 36542, USA",33,43,
guntersville,alabama,34.3581473,-86.29470409999999,"2008 Ridgecrest Drive, Guntersville, AL 35976, USA",38,28,
gurley town,alabama,34.7017558,-86.3758201,"173 Wood St, Gurley, AL 35748, USA",24,33,
hackleburg town,alabama,34.27732,-87.8286423,"34654 US-43, Hackleburg, AL 35564, USA",36,38,
haleyville,alabama,34.226488,-87.6214133,"1900 11th Ave, Haleyville, AL 35565, USA",58,43,
hamilton,alabama,34.1423235,-87.98864379999999,"35570, Hamilton, AL 35570, United States",38,45,
hanceville,alabama,34.0606545,-86.76749799999999,"205 Blountsville St, Hanceville, AL 35077, USA",32,37,
harpersville town,alabama,33.3439995,-86.4380357,"5873 US-280, Harpersville, AL 35078, USA",24,33,
hartford,alabama,31.1023998,-85.6968778,"101 S 3rd Ave, Hartford, AL 36344, USA",47,57,
hartselle,alabama,34.4434282,-86.9352842,"206 Main St W, Hartselle, AL 35640, USA",67,49,
headland,alabama,31.351284,-85.3421559,"548 Old Hwy 431, Headland, AL 36345, USA",49,43,
heflin,alabama,33.6444926,-85.5842385,"9000 US-78, Heflin, AL 36264, USA",43,30,
helena,alabama,33.296224,-86.8436004,"4093 Helena Rd, Helena, AL 35080, USA",41,28,
henagar,alabama,34.635084,-85.7671936,"10079 AL-40, Henagar, AL 35978, USA",4,28,
hokes bluff,alabama,33.9981546,-85.8663574,"5595 Main St, Hokes Bluff, AL 35903, USA",27,32,
homewood,alabama,33.4717732,-86.80082279999999,"1526 Roseland Dr, Birmingham, AL 35209, USA",41,38,
hoover,alabama,33.4053867,-86.8113781,"2 Chase Corporate Center Dr, Hoover, AL 35226, USA",51,32,
hueytown,alabama,33.4512197,-86.9966606,"110 Sunset Dr, Hueytown, AL 35023, USA",51,42,
huntsville,alabama,34.7303688,-86.5861037,"101-199 Spring St SW, Huntsville, AL 35801, USA",73,75,32
irondale,alabama,33.5381601,-86.70721019999999,"100 20th St S, Irondale, AL 35210, USA",48,47,
jackson,alabama,31.5090521,-87.8944435,"240 Commerce St, Jackson, AL 36545, USA",41,34,
jacksonville,alabama,33.8137125,-85.76135359999999,"2 Public Square W, Jacksonville, AL 36265, USA",67,39,
jasper,alabama,33.8312185,-87.2775053,"1962 3rd Ave, Jasper, AL 35501, USA",50,40,
jemison,alabama,32.9598451,-86.7466522,"101 Main St, Jemison, AL 35085, USA",47,51,
killen town,alabama,34.8628637,-87.5375253,"225 Alabama St, Killen, AL 35645, USA",20,29,
kimberly town,alabama,33.7734352,-86.81388319999999,"9108 Jefferson St, Kimberly, AL 35091, USA",17,22,
kinston town,alabama,31.21600449999999,-86.1710578,"103 AL-52, Kinston, AL 36453, USA",15,37,
lake view town,alabama,33.2806703,-87.13749589999999,"21168 Mountain View Cir, Lake View, AL 35111, USA",5,1,
lanett,alabama,32.86873910000001,-85.1904971,"121 N Lanier Ave, Lanett, AL 36863, USA",56,44,
leeds,alabama,33.5481597,-86.54442879999999,"1120 Ashville Rd, Leeds, AL 35094, USA",56,37,
leesburg town,alabama,34.1798177,-85.7613554,"1910 Lokey St, Leesburg, AL 35983, USA",25,39,
leighton town,alabama,34.700923,-87.52891509999999,"8750 Main St, Leighton, AL 35646, USA",19,32,
level plains town,alabama,31.2996162,-85.77799139999999,"2006 Joe Bruer Rd, Daleville, AL 36322, USA",13,29,
lincoln,alabama,33.6131588,-86.1183061,"Old Downtown Lincoln, 34 James Ave, Lincoln, AL 35096, USA",17,27,
linden,alabama,32.3062534,-87.7980665,"104 N Main St, Linden, AL 36748, USA",52,51,
lineville,alabama,33.3106696,-85.7544051,"60092 AL-49, Lineville, AL 36266, USA",42,43,
lipscomb,alabama,33.4256646,-86.9266588,"5609 Avenue E, Bessemer, AL 35020, USA",14,18,
littleville town,alabama,34.5906483,-87.6769745,"1645 Oak St, Russellville, AL 35654, USA",21,39,
livingston,alabama,32.5843025,-88.1872475,"101a North St, Livingston, AL 35470, USA",37,53,
loxley town,alabama,30.6182476,-87.75304539999999,"1470 Co Rd 64, Loxley, AL 36551, USA",44,40,
luverne,alabama,31.7165455,-86.2638492,"122 Le Grande Ave, Luverne, AL 36049, USA",52,41,
madison,alabama,34.6992579,-86.74833180000002,"318 Church St, Madison, AL 35758, USA",43,54,
maplesville town,alabama,32.7884608,-86.8716549,"9417 AL-22, Maplesville, AL 36750, USA",13,40,
margaret town,alabama,33.6862124,-86.47498379999999,"1335 Co Rd 12, Odenville, AL 35120, USA",7,,
mcintosh town,alabama,31.2662818,-88.0313903,"158 Commerce St, McIntosh, AL 36553, USA",18,38,
midfield,alabama,33.4614965,-86.90888079999999,"2 Phillips Dr, Midfield, AL 35228, United States",64,47,
midland city town,alabama,31.3190612,-85.4938239,"224 Kelly Ave, Midland City, AL 36350, USA",12,28,
millbrook,alabama,32.4798575,-86.36191629999999,"3390 AL-143, Millbrook, AL 36054, USA",32,39,
mobile,alabama,30.6953657,-88.0398912,"1 St Louis St, Mobile, AL 36602, USA",61,47,
monroeville,alabama,31.5279399,-87.32470769999999,"65 N Alabama Ave, Monroeville, AL 36460, USA",42,39,
montevallo,alabama,33.1006746,-86.86415579999999,"630 Valley St, Montevallo, AL 35115, USA",68,66,
montgomery,alabama,32.3792233,-86.3077368,"103 N Perry St, Montgomery, AL 36104, USA",60,45,32
moody,alabama,33.5909365,-86.49081679999999,"3104 Daniel Dr, Moody, AL 35004, USA",26,42,
morris town,alabama,33.7481576,-86.8086048,"8331 1st Ave S, Morris, AL 35116, USA",23,22,
morrison crossroads,alabama,33.42639,-85.49333,"45 Co Rd 251, Newell, AL 36280, USA",0,14,
moulton,alabama,34.4812062,-87.29335329999999,"700-798 Big Nance St, Moulton, AL 35650, USA",38,38,
moundville town,alabama,32.9976242,-87.6300075,"384 Market St, Moundville, AL 35474, USA",22,36,
mount vernon town,alabama,31.0851775,-88.01333249999999,"18870 State St, Mt Vernon, AL 36560, USA",17,32,
mountain brook,alabama,33.5009384,-86.75221069999999,"3800 Montevallo Rd, Birmingham, AL 35213, USA",77,33,
muscle shoals,alabama,34.7448112,-87.66752919999999,"521 W Avalon Ave, Muscle Shoals, AL 35661, USA",63,47,
new brockton town,alabama,31.3857239,-85.9293861,"103 E Mckinnon St, New Brockton, AL 36351, USA",15,29,
new hope,alabama,34.5370339,-86.3944307,"5496 Main Dr, New Hope, AL 35760, USA",21,32,
newton town,alabama,31.3351716,-85.6052133,"58 Callaway St, Newton, AL 36352, USA",5,19,
northport,alabama,33.229007,-87.5772293,"1910 Lurleen B Wallace Blvd, Northport, AL 35476, USA",71,52,
notasulga town,alabama,32.5606908,-85.6724538,"30 W Main St, Notasulga, AL 36866, USA",19,39,
odenville town,alabama,33.6773237,-86.396648,"521 Alabama St, Odenville, AL 35120, USA",33,26,
ohatchee town,alabama,33.7834324,-86.0024703,"196-276 Main St, Ohatchee, AL 36271, United States",3,21,
oneonta,alabama,33.9481537,-86.472764,"500 2nd Ave E, Oneonta, AL 35121, USA",63,53,
opelika,alabama,32.6454116,-85.3782795,"1409 S 9th St, Opelika, AL 36801, USA",59,43,
opp,alabama,31.2826685,-86.2555067,"134 E Hart Ave, Opp, AL 36467, USA",51,49,
orange beach,alabama,30.2697033,-87.5867598,"25775 AL-182, Orange Beach, AL 36561, USA",44,64,
oxford,alabama,33.6142714,-85.8349648,"7 Snow St, Oxford, AL 36203, USA",66,35,
ozark,alabama,31.459017,-85.640289,"11678 AL-27, Ozark, AL 36360, USA",59,44,
parrish town,alabama,33.7306642,-87.2844473,"24 1st St, Parrish, AL 35580, USA",2,13,
pelham,alabama,33.2856687,-86.8099885,"3183 Pelham Pkwy, Pelham, AL 35124, USA",42,15,
pell city,alabama,33.5862149,-86.2860888,"1822 Cogswell Ave, Pell City, AL 35125, USA",58,46,
phenix city,alabama,32.4709761,-85.0007653,"511 13th St, Phenix City, AL 36867, USA",63,42,
piedmont,alabama,33.9245454,-85.6113501,"120 N Center Ave, Piedmont, AL 36272, USA",58,67,
pine hill town,alabama,31.9795943,-87.5880561,"50 Dunn St, Pine Hill, AL 36769, USA",7,29,
pleasant grove,alabama,33.4909405,-86.9702714,"600-698 5th Ave, Pleasant Grove, AL 35127, USA",28,17,
powell town,alabama,34.5338917,-85.89466929999999,"53 Hudgens St, Fyffe, AL 35971, USA",0,18,
prattville,alabama,32.4640245,-86.4596966,"536 Wetumpka St, Prattville, AL 36067, USA",36,20,
priceville town,alabama,34.5250932,-86.8947271,"1794 S Bethel Rd, Decatur, AL 35603, USA",42,40,
prichard,alabama,30.74515449999999,-88.0896618,"1877 Whistler St, Prichard, AL 36610, USA",24,34,
ragland town,alabama,33.7445442,-86.1558079,"701 1st Ave, Ragland, AL 35131, USA",30,21,
rainbow city,alabama,33.9548201,-86.04191689999999,"3331 Rainbow Dr, Rainbow City, AL 35906, USA",59,41,
rainsville,alabama,34.4942536,-85.8477494,"37 Main St E, Rainsville, AL 35986, USA",51,41,
ranburne town,alabama,33.5228885,-85.34467280000001,"21144 Main St, Ranburne, AL 36273, USA",29,28,
red bay,alabama,34.4398202,-88.1408747,"307 4th St SE, Red Bay, AL 35582, USA",46,41,
reform town,alabama,33.378451,-88.01530079999999,"101 Main St, Reform, AL 35481, USA",30,42,
riverside town,alabama,33.6062145,-86.2044198,"50 Coleman Ave, Riverside, AL 35135, USA",10,19,
roanoke,alabama,33.1512313,-85.37217079999999,"809 Main St, Roanoke, AL 36274, USA",43,43,
robertsdale,alabama,30.5538048,-87.7119324,"18301 Pennsylvania St, Robertsdale, AL 36567, USA",55,58,
rogersville town,alabama,34.8256425,-87.2947417,"Park, 1609 Lee St, Rogersville, AL 35652, USA",54,43,
russellville,alabama,34.5078726,-87.7286431,"109 E Madison St, Russellville, AL 35653, USA",59,41,
samson,alabama,31.1129539,-86.0460518,"120 E Main St, Samson, AL 36477, USA",32,49,
saraland,alabama,30.820742,-88.07055559999999,"20 US-43, Saraland, AL 36571, USA",56,45,
sardis city town,alabama,34.1742616,-86.1227533,"1321 Church St, Sardis City, AL 35956, USA",15,30,
satsuma,alabama,30.853241,-88.0561106,"5568 4th St, Satsuma, AL 36572, USA",41,39,
scottsboro,alabama,34.6723069,-86.03414629999999,"102 E Laurel St, Scottsboro, AL 35768, USA",49,42,
selma,alabama,32.4073589,-87.02110069999999,"803-971 Alabama Ave, Selma, AL 36701, USA",59,51,
sheffield,alabama,34.7650887,-87.6986407,"701 N Montgomery Ave, Sheffield, AL 35660, USA",48,51,
silverhill town,alabama,30.5454715,-87.75165590000002,"15976 AL-104, Silverhill, AL 36576, USA",29,35,
slocomb,alabama,31.1082335,-85.59437799999999,"104 N Dalton St, Slocomb, AL 36375, USA",43,50,
snead town,alabama,34.1195406,-86.3955398,"42941 AL-75, Snead, AL 35952, USA",34,46,
southside,alabama,33.9245425,-86.02247179999999,"2020 AL-77, Southside, AL 35907, USA",32,37,
spanish fort,alabama,30.671469,-87.90188289999999,"7050 Highpointe Pl W, Spanish Fort, AL 36527, USA",41,32,
springville,alabama,33.7750997,-86.4716512,"6426 US-11, Springville, AL 35146, USA",40,39,
steele town,alabama,33.9398201,-86.2016435,"3691 Pope Ave, Steele, AL 35987, USA",22,27,
sulligent,alabama,33.9017738,-88.1344776,"55297 AL-17, Sulligent, AL 35586, USA",39,48,
sumiton,alabama,33.7556606,-87.04999920000002,"1241 Main St, Sumiton, AL 35148, USA",37,32,
summerdale town,alabama,30.4876954,-87.69970939999999,"103 NW 1st St, Summerdale, AL 36580, USA",19,32,
sylacauga,alabama,33.1731716,-86.2516406,"21-99 W 4th St, Sylacauga, AL 35150, USA",50,47,
talladega,alabama,33.4359416,-86.1058048,"111 N Spring St, Talladega, AL 35160, USA",60,59,
tallassee,alabama,32.5359683,-85.8932923,"302 Barnett Blvd, Tallassee, AL 36078, USA",35,22,
tarrant,alabama,33.586822,-86.7718017,"799 Elizabeth Ave, Birmingham, AL 35217, USA",35,40,
taylor town,alabama,31.164899,-85.468267,"4471 Taylor Rd, Taylor, AL 36301, USA",0,21,
thomasville,alabama,31.9134859,-87.7358366,"30160 US-43, Thomasville, AL 36784, USA",41,34,
thorsby town,alabama,32.9156796,-86.7158178,"21192 US-31, Thorsby, AL 35171, USA",33,39,
town creek town,alabama,34.6812011,-87.4061342,"2538 Joe Wheeler, Town Creek, AL 35672, USA",20,35,
triana town,alabama,34.5862032,-86.7333314,"165 Stone St SW, Madison, AL 35756, USA",16,17,
trinity town,alabama,34.6067588,-87.0883458,"686 N Seneca Dr, Trinity, AL 35673, USA",0,25,
troy,alabama,31.8087678,-85.969951,"221 E Academy St, Troy, AL 36081, USA",61,39,
trussville,alabama,33.6198251,-86.60887559999999,"106 N Chalkville Rd, Trussville, AL 35173, USA",57,45,
tuscaloosa,alabama,33.2098407,-87.56917349999999,"2436 University Blvd, Tuscaloosa, AL 35401, USA",63,33,
tuscumbia,alabama,34.7312005,-87.70253,"116 E 6th St, Tuscumbia, AL 35674, USA",59,43,
tuskegee,alabama,32.430237,-85.7077266,"William Willcox Hall A, Fannie Norton Smith St, Tuskegee, AL 36088, USA",26,38,
union springs,alabama,32.144316,-85.7149495,"108 ⛉ Hardaway Avenue E, Union Springs, AL 36089, USA",56,55,
uniontown town,alabama,32.44958039999999,-87.5141687,"288 Water Ave, Uniontown, AL 36786, USA",33,34,
valley,alabama,32.8187406,-85.1793852,"2393 55th St W, Valley, AL 36854, USA",15,16,
vance town,alabama,33.1742847,-87.23360919999999,"10500 Vance Blocton Rd, Vance, AL 35490, USA",15,16,
vestavia hills,alabama,33.4487183,-86.7877668,"617 Tremont Dr, Vestavia Hills, AL 35216, USA",64,41,
warrior,alabama,33.8142682,-86.8094394,"108 Bluff St, Warrior, AL 35180, USA",43,24,
weaver,alabama,33.7520456,-85.81135429999999,"617 Jacksonville St, Weaver, AL 36277, USA",23,48,
wedowee town,alabama,33.3090047,-85.484675,"12 E Broad St NE, Wedowee, AL 36278, USA",35,33,
west blocton town,alabama,33.1181748,-87.1249954,"4901 Truman Aldridge Pkwy, West Blocton, AL 35184, USA",32,21,
wetumpka,alabama,32.5437448,-86.2119127,"413 N Broad St, Wetumpka, AL 36092, USA",20,41,
winfield,alabama,33.928993,-87.8172457,"1052 US-43, Winfield, AL 35594, USA",37,50,
woodstock town,alabama,33.2067835,-87.1499961,"122 Strickland Dr, Woodstock, AL 35188, USA",3,14,
york,alabama,32.4862491,-88.29641830000001,"104 Broad St, York, AL 36925, USA",41,42,
anchorage municipality,alaska,61.2180556,-149.9002778,"939 W 5th Ave, Anchorage, AK 99501, USA",77,77,50
bethel,alaska,60.7922222,-161.7558334,"624 1st Ave, Bethel, AK 99559, USA",3,43,
cordova,alaska,60.5424087,-145.7525414,"501 Lake Ave, Cordova, AK 99574, USA",13,23,
craig,alaska,55.4763889,-133.1483333,"400 Port Bagial Blvd, Craig, AK 99921, USA",14,41,
dillingham,alaska,59.03972219999999,-158.4575,"217 C St, Dillingham, AK 99576, USA",18,21,
fairbanks,alaska,64.8377778,-147.7163888,"513 12th Ave, Fairbanks, AK 99701, USA",80,74,32
haines,alaska,59.2358333,-135.445,"12 2nd Ave, Haines, AK 99827, USA",41,55,
homer,alaska,59.64100000000001,-151.546,"135 Sterling Hwy, Homer, AK 99603, USA",52,51,
juneau city and borough,alaska,58.3019444,-134.4197221,"921 D St, Juneau, AK 99801, USA",84,69,27
kenai,alaska,60.55582080000001,-151.2484535,"230 Bidarka St, Kenai, AK 99611, USA",53,44,
ketchikan,alaska,55.34222219999999,-131.6461112,"306 Main St, Ketchikan, AK 99901, USA",70,25,
kodiak,alaska,57.79000000000001,-152.4072221,"111 Lower Mill Bay Rd, Kodiak, AK 99615, USA",62,40,
kotzebue,alaska,66.89833329999999,-162.5966666,"346 Tundra Way, Kotzebue, AK 99752, USA",20,47,
nome,alaska,64.5011111,-165.4063889,"201 Tobuk Alley, Nome, AK 99762, USA",35,50,
north pole,alaska,64.7511111,-147.3494443,"109 E 5th Ave, North Pole, AK 99705, USA",45,44,
palmer,alaska,61.5999977,-149.130955,"901 Evergreen Ave, Palmer, AK 99645, USA",43,69,
petersburg,alaska,56.8125,-132.9555556,"101 Fram St, Petersburg, AK 99833, USA",49,48,
seward,alaska,60.10416669999999,-149.4422222,"329 3rd Ave, Seward, AK 99664, USA",41,51,
sitka city and borough,alaska,57.0530556,-135.33,"210 Baranof St, Sitka, AK 99835, USA",67,64,
skagway,alaska,59.45540250000001,-135.315279,"499 Broadway, Skagway, AK 99840, USA",51,76,
soldotna,alaska,60.4889969,-151.0547775,"43874 Sterling Hwy, Soldotna, AK 99669, USA",36,47,
unalaska,alaska,53.8844382,-166.5332434,"E Point Dr, Unalaska, AK 99692, USA",2,23,
valdez,alaska,61.13083330000001,-146.3483334,"118 E Pioneer Dr, Valdez, AK 99686, USA",37,73,
wasilla,alaska,61.58451720000001,-149.4281967,"851 E Usa Cir, Wasilla, AK 99654, USA",50,68,
wrangell city and borough,alaska,56.4708333,-132.3766666,"215 Bennett St, Wrangell, AK 99929, USA",28,38,
apache junction,arizona,33.4150485,-111.5495777,"183 Apache Trail, Apache Junction, AZ 85120, USA",65,60,
avondale,arizona,33.4355977,-112.3496021,"14 E Western Ave, Avondale, AZ 85323, USA",73,59,
buckeye town,arizona,33.3703197,-112.5837766,"517 Monroe Ave, Buckeye, AZ 85326, USA",72,53,
bullhead city,arizona,35.1359386,-114.5285981,"1423 Pioneer Trail, Bullhead City, AZ 86429, USA",8,5,
camp verde town,arizona,34.5636358,-111.8543178,"396 S Main St, Camp Verde, AZ 86322, USA",50,54,
casa grande,arizona,32.9110027,-111.7733902,"Sawgrass Ct, Casa Grande, AZ 85122, USA",0,35,
chandler,arizona,33.3061605,-111.8412502,"7 E Chandler Blvd, Chandler, AZ 85225, USA",80,56,39
chino valley town,arizona,34.7575227,-112.4537809,"845 AZ-89, Chino Valley, AZ 86323, USA",43,37,
clarkdale town,arizona,34.7711319,-112.0579367,"909 Main St, Clarkdale, AZ 86324, USA",36,25,
coolidge,arizona,32.977839,-111.517624,"160 W Central Ave, Coolidge, AZ 85128, USA",55,52,
cottonwood,arizona,34.7391876,-112.0098791,"14 S Main St, Cottonwood, AZ 86326, USA",63,60,
douglas,arizona,31.3445471,-109.5453447,"1100 E 10th St, Douglas, AZ 85607, USA",61,56,
eagar town,arizona,34.1111581,-109.291475,"16 W Central Ave, Eagar, AZ 85925, USA",45,39,
el mirage,arizona,33.6130942,-112.3246042,"14217 N El Mirage Rd, El Mirage, AZ 85335, USA",61,64,
eloy,arizona,32.7558962,-111.554844,"626 N Main St, Eloy, AZ 85131, USA",52,58,
flagstaff,arizona,35.1982836,-111.651302,"122 US-180, Flagstaff, AZ 86001, USA",91,100,55
florence town,arizona,33.0314508,-111.3873431,"28677 Center St, Florence, AZ 85132, USA",48,58,
fredonia town,arizona,36.945542,-112.5265889,"66 Pratt St, Fredonia, AZ 86022, USA",10,34,
gilbert town,arizona,33.3528264,-111.789027,"133 N Gilbert Rd, Gilbert, AZ 85234, USA",71,69,34
glendale,arizona,33.5386523,-112.1859866,"5900 W Glendale Ave, Glendale, AZ 85301, USA",88,70,39
globe,arizona,33.3942223,-110.7864984,"300 S Broad St, Globe, AZ 85501, USA",68,42,
goodyear,arizona,33.4353394,-112.3576567,"101 W Western Ave, Avondale, AZ 85323, USA",43,66,
hayden town,arizona,33.0047878,-110.7853836,"618 Hayden Ave, Hayden, AZ 85135, USA",14,22,
holbrook,arizona,34.9022482,-110.1581768,"252 Navajo Blvd, Holbrook, AZ 86025, USA",57,53,
huachuca city town,arizona,31.6278703,-110.3339678,"302 1st St, Huachuca City, AZ 85616, USA",33,42,
jerome town,arizona,34.7489107,-112.1137716,"P.O. Box 123, Jerome, AZ 86331, United States",50,16,
kearny town,arizona,33.0570085,-110.9106656,"401 Danbury Rd, Kearny, AZ 85137, USA",26,26,
kingman,arizona,35.189443,-114.0530065,"111-199 N 4th St, Kingman, AZ 86401, USA",49,52,
lake havasu city,arizona,34.483901,-114.3224548,"101 Mescal Loop, Lake Havasu City, AZ 86403, USA",37,37,
mammoth town,arizona,32.722568,-110.6406547,"125 Main St, Mammoth, AZ 85618, USA",21,32,
marana town,arizona,32.436381,-111.2224422,"12601 N Whitney Ln, Marana, AZ 85653, USA",3,44,
maricopa,arizona,33.0581063,-112.0476423,"19643 N John Wayne Pkwy, Maricopa, AZ 85139, USA",48,40,
mesa,arizona,33.4151843,-111.8314724,"4 E Main St, Mesa, AZ 85201, USA",71,97,54
miami town,arizona,33.3992217,-110.8687232,"125 Miami Ave, Miami, AZ 85539, USA",34,8,
nogales,arizona,31.3403775,-110.9342532,"434 N Wayside Dr, Nogales, AZ 85621, USA",77,30,
oro valley town,arizona,32.3909071,-110.966488,"45 W Oro Pl, Tucson, AZ 85737, USA",19,26,
page,arizona,36.91472220000001,-111.4558333,"699 S Navajo Dr, Page, AZ 86040, USA",80,52,
paradise valley town,arizona,33.5311541,-111.9426452,"6501-6699 N Invergordon Rd, Paradise Valley, AZ 85253, USA",14,45,
parker strip,arizona,34.22729959999999,-114.1885228,"7240 Riverside Dr, Parker, AZ 85344, USA",12,30,
parker town,arizona,34.1500162,-114.2891177,"1004 S California Ave, Parker, AZ 85344, USA",73,59,
patagonia town,arizona,31.5395378,-110.7561963,"384 Naugle Ave, Patagonia, AZ 85624, USA",46,52,
payson town,arizona,34.2308684,-111.3251355,"100 W Main St, Payson, AZ 85541, USA",70,34,
peoria,arizona,33.5805955,-112.2373779,"83rd Av & Washington St, Peoria, AZ 85345, USA",63,52,35
phoenix,arizona,33.4483771,-112.0740373,"22 W Washington St, Phoenix, AZ 85004, USA",91,57,65
pima town,arizona,32.8961755,-109.8275815,"2 N Main St, Pima, AZ 85543, USA",22,34,
pimaco two,arizona,31.95056,-110.45194,"16711 S Whetstone Ave, Benson, AZ 85602, USA",0,19,
pine,arizona,34.3844739,-111.4551407,"6119 AZ-260, Pine, AZ 85544, USA",43,40,
pinetop-lakeside town,arizona,34.1425438,-109.9603843,"503 W Summer Haven Ln, Lakeside, AZ 85929, USA",29,27,
prescott,arizona,34.5400242,-112.4685025,"141 S Cortez St, Prescott, AZ 86303, USA",82,46,
prescott valley town,arizona,34.6100243,-112.315721,"8500 Spouse Dr, Prescott Valley, AZ 86314, USA",42,45,
quartzsite town,arizona,33.6639137,-114.2299486,"775 W Main St, Quartzsite, AZ 85346, USA",27,62,
safford,arizona,32.8339546,-109.70758,"515 S 1st Ave, Safford, AZ 85546, USA",61,45,
sahuarita town,arizona,31.9575818,-110.955646,"1130 E Sahuarita Rd, Sahuarita, AZ 85629, USA",12,29,
san luis,arizona,32.4869996,-114.7821796,"503 Main St, San Luis, AZ 85349, USA",62,52,
scottsdale,arizona,33.4941704,-111.9260519,"4017 N Scottsdale Rd, Scottsdale, AZ 85251, USA",70,88,48
sedona,arizona,34.8697395,-111.7609896,"247 AZ-89A, Sedona, AZ 86336, USA",43,17,
show low,arizona,34.2542084,-110.0298327,"1152 US-60, Show Low, AZ 85901, USA",39,45,
sierra vista,arizona,31.5455001,-110.2772856,"2031 E Tiffany Pl, Sierra Vista, AZ 85635, USA",24,49,
somerton,arizona,32.5964404,-114.709677,"Main Street Somerton @ Somerton Avenue, Somerton, AZ 85350, USA",59,51,
south tucson,arizona,32.199521,-110.968425,"29th St/6th Av, South Tucson, AZ 85713, USA",79,86,
springerville town,arizona,34.1333799,-109.2859196,"5 S Mountain Ave, Springerville, AZ 85938, USA",44,43,
st. johns,arizona,34.5058698,-109.3609327,"150 Commercial St, St Johns, AZ 85936, USA",23,32,
superior town,arizona,33.293945,-111.0962305,"14 N Magma Ave, Superior, AZ 85173, USA",43,29,
surprise,arizona,33.6292337,-112.3679279,"16000 N Civic Center Plaza, Surprise, AZ 85374, USA",15,37,
tempe,arizona,33.4255104,-111.9400054,"501 S Mill Ave, Tempe, AZ 85281, USA",88,99,69
thatcher town,arizona,32.8492323,-109.7592479,"3544 W Main St, Thatcher, AZ 85552, USA",40,37,
tolleson,arizona,33.4500425,-112.259321,"9257 W Van Buren St, Tolleson, AZ 85353, USA",68,52,
tombstone,arizona,31.7128683,-110.0675764,"330 E Allen St, Tombstone, AZ 85638, USA",54,44,
tucson,arizona,32.2226066,-110.9747108,"255 W Alameda St, Tucson, AZ 85701, USA",74,98,70
wellton hills,arizona,32.624404,-114.1394764,"21182 Cleator Ave, Wellton, AZ 85356, USA",0,25,
wellton town,arizona,32.6728256,-114.1468821,"28673 Los Angeles Ave, Wellton, AZ 85356, USA",32,34,
wickenburg town,arizona,33.9697664,-112.7301882,"131 E Apache St, Wickenburg, AZ 85390, USA",63,68,
willcox,arizona,32.2528519,-109.8320124,"125 N Haskell Ave, Willcox, AZ 85643, USA",62,44,
williams,arizona,35.24945659999999,-112.1910031,"417 W Historic Rte 66, Williams, AZ 86046, USA",72,61,
winslow,arizona,35.0241873,-110.6973571,"102 E 3rd St, Winslow, AZ 86047, USA",58,49,
yuma,arizona,32.6926512,-114.6276916,"647-699 W 19th St, Yuma, AZ 85364, USA",78,81,24
alexander,arkansas,34.6295373,-92.4412674,"13301 3rd St, Alexander, AR 72002, USA",9,20,
alma,arkansas,35.4778653,-94.2218752,"703 Fayetteville Ave, Alma, AR 72921, USA",43,33,
altus,arkansas,35.4461965,-93.7624172,"26 E Main St, Altus, AR 72821, USA",26,20,
amity,arkansas,34.2648201,-93.4610173,"135 W Thompson St, Amity, AR 71921, USA",26,31,
arkadelphia,arkansas,34.1209292,-93.0537839,"600-698 AR-51, Arkadelphia, AR 71923, USA",61,51,
ash flat,arkansas,36.2239566,-91.6084751,"219 Ash Flat Dr, Ash Flat, AR 72513, USA",8,23,
ashdown,arkansas,33.6742867,-94.1313054,"Wal-Mart, 297 Hwy 32 By pass E., Ashdown, AR 71822, United States",38,42,
atkins,arkansas,35.2464719,-92.9365581,"409 Ave 1 NE, Atkins, AR 72823, USA",41,41,
augusta,arkansas,35.2823079,-91.3654063,"211 S 3rd St, Augusta, AR 72006, USA",18,33,
austin,arkansas,34.9984206,-91.9837552,"102 S Pool St, Austin, AR 72007, USA",20,27,
bald knob,arkansas,35.3098066,-91.5679114,"403 S Elm St, Bald Knob, AR 72010, USA",39,39,
barling,arkansas,35.3256469,-94.3016006,"406 Church St, Barling, AR 72923, USA",37,24,
batesville,arkansas,35.769799,-91.6409721,"990 S St Louis St, Batesville, AR 72501, USA",71,41,
bay,arkansas,35.742299,-90.5623305,"105 Church St, Bay, AR 72411, USA",25,31,
bearden,arkansas,33.7245526,-92.6157139,"10 1st St NW, Bearden, AR 71720, USA",21,40,
beebe,arkansas,35.0706423,-91.8795856,"107 E Center St, Beebe, AR 72012, USA",28,38,
bella vista town,arkansas,36.481464,-94.2732642,"1 Hatcher Dr, Bella Vista, AR 72715, USA",1,2,
benton,arkansas,34.5645371,-92.586828,"201 N Main St, Benton, AR 72015, USA",59,52,
bentonville,arkansas,36.3728538,-94.2088172,"100 S Main St, Bentonville, AR 72712, USA",79,83,
berryville,arkansas,36.364792,-93.5679667,"408 Public Square, Berryville, AR 72616, USA",66,45,
bethel heights,arkansas,36.2142438,-94.1293698,"3334 Alliance Dr, Bethel Heights, AR 72764, USA",8,28,
black rock,arkansas,36.108403,-91.0973473,"111 3rd St, Black Rock, AR 72415, USA",11,16,
blytheville,arkansas,35.9272953,-89.9189753,"646 E Main St, Blytheville, AR 72315, USA",38,55,
bono,arkansas,35.9086842,-90.8026153,"302 W College St, Bono, AR 72416, USA",15,32,
booneville,arkansas,35.140093,-93.9215909,"10 E Main St, Booneville, AR 72927, USA",48,41,
bradford,arkansas,35.4231381,-91.4559649,"5235-5227 AR-367, Bradford, AR 72020, USA",33,36,
brinkley,arkansas,34.8878719,-91.1945688,"1405 N Main St, Brinkley, AR 72021, USA",39,41,
brookland,arkansas,35.900073,-90.5820534,"100 E Hinkley St, Brookland, AR 72417, USA",17,29,
bryant,arkansas,34.5959265,-92.4890469,"200 N Reynolds Rd, Bryant, AR 72022, USA",40,37,
bull shoals,arkansas,36.383956,-92.5815527,"603 Broadway Ave, Bull Shoals, AR 72619, USA",45,38,
cabot,arkansas,34.974532,-92.0165336,"113 N 2nd St, Cabot, AR 72023, USA",65,48,
caddo valley town,arkansas,34.1820388,-93.0710073,"139 Valley St, Caddo Valley, AR 71923, USA",19,29,
camden,arkansas,33.5845581,-92.8343294,"Gdatp Highland Industrial, Camden, AR 71701, United States",49,40,
cammack village,arkansas,34.7781471,-92.3490418,"6724 Brentwood Rd, Little Rock, AR 72207, USA",23,17,
caraway,arkansas,35.7581319,-90.3223223,"102 E State St, Caraway, AR 72419, USA",9,30,
carlisle,arkansas,34.7831469,-91.7465235,"102 N Court Ave, Carlisle, AR 72024, USA",34,40,
cave city,arkansas,35.9417397,-91.5484709,"167 N Main St, Cave City, AR 72521, USA",38,33,
cave springs,arkansas,36.2634108,-94.2318728,"112 N Main St, Cave Springs, AR 72718, USA",19,9,
cedarville,arkansas,35.5698087,-94.3668792,"9048 AR-59, Cedarville, AR 72932, USA",19,10,
centerton,arkansas,36.359799,-94.2852085,"191 N Main St, Centerton, AR 72719, USA",54,39,
charleston,arkansas,35.2970353,-94.0363153,"511 E Main St, Charleston, AR 72933, USA",40,33,
cherokee village,arkansas,36.2978443,-91.515973,"35 Squanto Trce, Cherokee Village, AR 72529, USA",8,18,
cherry valley,arkansas,35.4020287,-90.7531682,"3251 AR-42, Cherry Valley, AR 72324, USA",15,31,
clarendon,arkansas,34.6931517,-91.313737,"152 Madison St, Clarendon, AR 72029, USA",41,48,
clarksville,arkansas,35.4714724,-93.4665731,"400 W Main St, Clarksville, AR 72830, USA",49,69,
clinton,arkansas,35.5914665,-92.4604361,"894 Fraser St, Clinton, AR 72031, USA",39,39,
concord town,arkansas,35.6636886,-91.8476443,"10979 Heber Springs Rd N, Concord, AR 72523, USA",4,21,
conway,arkansas,35.0886963,-92.4421011,"1319 Main St, Conway, AR 72034, USA",68,58,
corning,arkansas,36.4078388,-90.5798336,"405 W 1st St, Corning, AR 72422, USA",43,37,
cotter,arkansas,36.2711798,-92.5354402,"Campgrounds at cotter, 225 5th St, Cotter, AR 72626, USA",20,13,
crossett,arkansas,33.1281779,-91.9612427,"601 Main St, Crossett, AR 71635, USA",45,49,
damascus town,arkansas,35.367302,-92.4096005,"285 Oak Tree Rd, Damascus, AR 72039, USA",22,34,
danville,arkansas,35.0539792,-93.3935185,"756 Main St, Danville, AR 72833, USA",52,50,
dardanelle,arkansas,35.2231408,-93.1579532,"216 Union St, Dardanelle, AR 72834, USA",59,46,
de queen,arkansas,34.0378916,-94.3413168,"322 W Dequeen Ave, De Queen, AR 71832, USA",60,41,
de valls bluff,arkansas,34.7848162,-91.458463,"56 North Main Street, De Valls Bluff, AR 72041, USA",8,17,
decatur,arkansas,36.33591120000001,-94.4607707,"121 N Main St, Decatur, AR 72722, USA",29,34,
dell town,arkansas,35.8553519,-90.0417571,"306 2nd, Dell, AR 72426, USA",9,27,
dermott,arkansas,33.52539,-91.4359537,"108 E Speedway St, Dermott, AR 71638, USA",29,39,
des arc,arkansas,34.9770353,-91.4951307,"216 Main St, Des Arc, AR 72040, USA",32,37,
dewitt,arkansas,34.2928774,-91.3378987,"302 S Jefferson St, DeWitt, AR 72042, USA",43,61,
diamond city,arkansas,36.464511,-92.9201731,"940 N Diamond Blvd, Lead Hill, AR 72644, USA",15,13,
diaz,arkansas,35.63841230000001,-91.2651282,"502 AR-18, Newport, AR 72112, USA",6,29,
dierks,arkansas,34.1192785,-94.0165816,"229 Main Ave, Dierks, AR 71833, USA",24,39,
dover,arkansas,35.4014712,-93.1143407,"9689 Market St, Dover, AR 72837, USA",41,33,
dumas,arkansas,33.8870476,-91.4917899,"250 N Main St, Dumas, AR 71639, USA",43,46,
dyer,arkansas,35.492309,-94.1377058,"300 Washington, Alma, AR 72921, USA",13,25,
earle,arkansas,35.2750871,-90.4667694,"801 5th St, Earle, AR 72331, USA",24,37,
el dorado,arkansas,33.20763,-92.6662674,"469599 Barton St, El Dorado, AR 71730, USA",63,56,
elkins,arkansas,36.0014682,-94.0082547,"150 Church Ave, Elkins, AR 72727, USA",33,35,
england,arkansas,34.5442609,-91.9690284,"123 S Main St, England, AR 72046, USA",43,47,
etowah town,arkansas,35.7289658,-90.2323188,"500 16 Dr, Etowah, AR 72428, USA",0,25,
eudora,arkansas,33.109566,-91.2620567,"144 S Main St, Eudora, AR 71640, USA",34,37,
eureka springs,arkansas,36.4011825,-93.7379711,"POB 487, Eureka Springs, AR 72632, United States",64,22,
fairfield bay,arkansas,35.5942441,-92.2779324,"101 W Cliff Dr, Fairfield Bay, AR 72088, USA",0,3,
farmington,arkansas,36.0420248,-94.2471515,"164 W Main St, Farmington, AR 72730, USA",52,45,
fayetteville,arkansas,36.082156,-94.1718542,"896 W Lawson St, Fayetteville, AR 72703, USA",55,81,
flippin,arkansas,36.2789578,-92.5971081,"145 School Ln, Flippin, AR 72634, USA",33,32,
fordyce,arkansas,33.8137161,-92.4129303,"100 W 4th St, Fordyce, AR 71742, USA",47,50,
forrest city,arkansas,35.0081474,-90.7898342,"110 S Division St, Forrest City, AR 72335, USA",44,43,
fort smith,arkansas,35.3859242,-94.3985475,"3103 Grand Ave, Fort Smith, AR 72904, USA",70,56,
gassville,arkansas,36.2831238,-92.4940505,"115 E Main St, Gassville, AR 72635, USA",36,40,
gentry,arkansas,36.2675793,-94.4846601,"100 E Main St, Gentry, AR 72734, USA",52,51,
glenwood,arkansas,34.3267653,-93.5507428,"128 E Broadway, Glenwood, AR 71943, USA",51,35,
gosnell,arkansas,35.9597942,-89.9720327,"201 Bevill Ave, Blytheville, AR 72315, USA",23,29,
gravette,arkansas,36.4220207,-94.4535484,"105 1st Ave SE, Gravette, AR 72736, USA",55,44,
green forest,arkansas,36.3353472,-93.4360188,"14 W Main St, Green Forest, AR 72638, USA",40,45,
greenbrier,arkansas,35.2339712,-92.387655,"1 N Broadview St, Greenbrier, AR 72058, USA",44,41,
greenland,arkansas,35.9942471,-94.1752048,"1 W Wilson St, Fayetteville, AR 72701, USA",24,30,
greenwood,arkansas,35.2156489,-94.2557663,"140 N Main St, Greenwood, AR 72936, USA",44,39,
greers ferry,arkansas,35.57702190000001,-92.1773745,"8625 Edgemont Rd, Greers Ferry, AR 72067, USA",34,35,
gurdon,arkansas,33.9209365,-93.1540591,"102 N Elm St, Gurdon, AR 71743, USA",41,41,
guy,arkansas,35.3253587,-92.3343208,"6 Main St, Guy, AR 72061, USA",4,26,
hamburg,arkansas,33.2281757,-91.7976285,"405 N Main St, Hamburg, AR 71646, USA",44,49,
hampton,arkansas,33.537892,-92.4698762,"130 E Main, Hampton, AR 71744, USA",48,37,
hardy,arkansas,36.3158994,-91.4826388,"219 W Main St, Hardy, AR 72542, USA",33,23,
harrisburg,arkansas,35.5642471,-90.7167786,"404 E Jackson St, Harrisburg, AR 72432, USA",29,22,
harrison,arkansas,36.2297936,-93.1076765,"101-199 W Stephenson Ave, Harrison, AR 72601, USA",76,54,
haskell,arkansas,34.5014817,-92.636552,"139 S Kennedy St, Benton, AR 72015, USA",3,25,
hazen,arkansas,34.7809263,-91.5809651,"1203 US-70, Hazen, AR 72064, USA",29,42,
heber springs,arkansas,35.4914677,-92.03126,"1415 AR-25 Bypass, Heber Springs, AR 72543, USA",61,51,
helena-west helena,arkansas,34.5291,-90.59,"538 Perry St, Helena, AR 72342, USA",48,59,
higginson town,arkansas,35.1948081,-91.7126368,"218 Walker Rd, Higginson, AR 72068, USA",7,25,
highfill town,arkansas,36.26146749999999,-94.3577108,"163 AR-12, Gentry, AR 72734, USA",0,27,
highland,arkansas,36.2759002,-91.5240287,"26 E Lakeshore Dr, Highland, AR 72542, USA",1,,
hope,arkansas,33.6670615,-93.5915665,"227 S Main St, Hope, AR 71801, USA",62,48,
hot springs,arkansas,34.5037004,-93.0551795,"Central Ave & W Grand St, Hot Springs, AR 71901, USA",77,48,
hoxie,arkansas,36.0503484,-90.9751205,"100-198 SW Lindsey, Hoxie, AR 72433, USA",25,37,
hughes,arkansas,34.9492613,-90.4714905,"123 N Cowan St, Hughes, AR 72348, USA",18,38,
jacksonville,arkansas,34.8662005,-92.1101458,"102 veterans Cir, Jacksonville, AR 72076, USA",75,64,
jericho town,arkansas,35.285921,-90.22704,"77 James Ave, Crawfordsville, AR 72327, USA",0,26,
johnson,arkansas,36.1328564,-94.1654821,"5803 Ball St, Fayetteville, AR 72704, USA",27,39,
jonesboro,arkansas,35.84229670000001,-90.704279,"201-299 S Main St, Jonesboro, AR 72401, USA",63,58,
judsonia,arkansas,35.270085,-91.6398575,"103 W Adams St, Judsonia, AR 72081, USA",14,27,
keiser,arkansas,35.6745227,-90.0998141,"104 W Main St, Keiser, AR 72351, USA",0,30,
kensett,arkansas,35.2317522,-91.6676357,"109 NE 1st St, Kensett, AR 72082, USA",22,35,
lake city,arkansas,35.816186,-90.434271,"601 Carter St, Lake City, AR 72437, USA",19,30,
lake village,arkansas,33.3314091,-91.2842212,"402 Main St, Lake Village, AR 71653, USA",35,42,
lakeview,arkansas,36.3686783,-92.5454407,"5897 AR-178, Lakeview, AR 72642, USA",21,24,
lamar,arkansas,35.440639,-93.3879594,"198-68 E Main St, Lamar, AR 72846, USA",16,29,
lavaca,arkansas,35.3362015,-94.1732635,"5 W Main St, Lavaca, AR 72941, USA",33,32,
leachville,arkansas,35.9359051,-90.257876,"30 E 3rd St, Leachville, AR 72438, USA",29,42,
lepanto,arkansas,35.6111908,-90.3298218,"237 Greenwood Ave, Lepanto, AR 72354, USA",33,43,
lewisville,arkansas,33.3584583,-93.5776771,"403 Spruce St, Lewisville, AR 71845, USA",35,27,
lincoln,arkansas,35.949526,-94.4235482,"112 Boyer Ave, Lincoln, AR 72744, USA",46,40,
little flock,arkansas,36.3859082,-94.1352041,"1325 Little Flock Dr, Rogers, AR 72756, USA",0,,
little rock,arkansas,34.7464809,-92.2895948,"112-172 State Capitol, Little Rock, AR 72201, USA",49,39,38
lonoke,arkansas,34.7839795,-91.8998611,"108 E Front St, Lonoke, AR 72086, USA",47,49,
lowell,arkansas,36.2553543,-94.1307587,"121 Jackson St, Lowell, AR 72745, USA",42,41,
luxora,arkansas,35.7561879,-89.9281419,"118 W Calhoun St, Luxora, AR 72358, USA",0,30,
madison,arkansas,35.0131472,-90.7226097,"102 2nd St, Madison, AR 72359, USA",10,27,
magnolia,arkansas,33.2670725,-93.239334,"121 E Main St, Magnolia, AR 71753, USA",50,47,
malvern,arkansas,34.3623149,-92.8129462,"308 S Main St, Malvern, AR 72104, USA",62,42,
mammoth spring,arkansas,36.4956181,-91.5406968,"312 Main St, Mammoth Spring, AR 72554, USA",32,24,
marianna,arkansas,34.7737082,-90.7576112,"3 N Poplar St, Marianna, AR 72360, USA",32,31,
marion,arkansas,35.2145336,-90.1964835,"44 E Military Rd, Marion, AR 72364, USA",46,40,
marked tree,arkansas,35.5328594,-90.4206578,"102 Broadway St, Marked Tree, AR 72365, USA",39,39,
marmaduke,arkansas,36.18700949999999,-90.3831586,"202 AR-34, Marmaduke, AR 72443, USA",22,34,
marshall,arkansas,35.9089643,-92.6312746,"100 E Main St, Marshall, AR 72650, USA",31,28,
marvell,arkansas,34.5556555,-90.9128928,"801 W Main, Marvell, AR 72366, USA",16,37,
maumelle,arkansas,34.8667565,-92.4043219,"1100 Edgewood Dr, Maumelle, AR 72113, USA",40,61,
mayflower,arkansas,34.9570324,-92.4273785,"1601 Gregory St & North Little Rock, Mayflower, AR 72106, United States",40,33,
mccrory,arkansas,35.2561978,-91.2001246,"109 9th Street, Building 1, McCrory, AR 72101, United States",24,37,
mcgehee,arkansas,33.6255234,-91.3945566,"102 C D Willis Dr, McGehee, AR 71654, United States",27,36,
mcrae,arkansas,35.1128642,-91.8223618,"601 E 1st, McRae, AR 72102, USA",14,28,
mena,arkansas,34.5862171,-94.2396554,"311 Dequeen St, Mena, AR 71953, USA",61,44,
menifee town,arkansas,35.1484169,-92.5540487,"296 Woodland, Menifee, AR 72107, USA",5,15,
mineral springs,arkansas,33.875116,-93.913798,"327 W Runnels St, Mineral Springs, AR 71851, USA",19,30,
monette,arkansas,35.8906286,-90.3442678,"305 Drew Ave, Monette, AR 72447, USA",33,34,
monticello,arkansas,33.6289974,-91.7909639,"103 W Gaines St, Monticello, AR 71655, USA",57,47,
morrilton,arkansas,35.1509173,-92.7440538,"200 E Church St, Morrilton, AR 72110, USA",58,34,
mountain home,arkansas,36.3353949,-92.381346,"409 E 6th St, Mountain Home, AR 72653, USA",64,47,
mountain view,arkansas,35.8684075,-92.11765210000002,"101 E Main St, Mountain View, AR 72560, USA",51,33,
mountainburg,arkansas,35.6356396,-94.167428,"326 US-71, Mountainburg, AR 72946, USA",21,2,
mulberry,arkansas,35.5006417,-94.0515919,"474 Hwy 917 S, Mulberry, AR 72947, USA",35,36,
murfreesboro,arkansas,34.0623308,-93.6899049,"27 W Main, Murfreesboro, AR 71958, USA",33,36,
nashville,arkansas,33.9456692,-93.847129,"104 W Shepherd St, Nashville, AR 71852, USA",50,44,
newport,arkansas,35.6048018,-91.2817951,"220 Walnut St, Newport, AR 72112, USA",32,38,
norfork,arkansas,36.2095132,-92.284323,"126 Blevins St, Norfork, AR 72658, USA",25,3,
north little rock,arkansas,34.769536,-92.2670941,"1608 Main St, North Little Rock, AR 72114, USA",47,44,28
ola,arkansas,35.0323119,-93.2232345,"100 Pennington St, Ola, AR 72853, USA",21,34,
osceola,arkansas,35.7050778,-89.96953200000002,"302 N Walnut St, Osceola, AR 72370, USA",41,49,
ozark,arkansas,35.4870295,-93.8276965,"310 W Commercial St, Ozark, AR 72949, USA",60,38,
pangburn,arkansas,35.4267476,-91.8368095,"929 Main St, Pangburn, AR 72121, USA",44,37,
paragould,arkansas,36.0584021,-90.4973286,"404 Winchester, Paragould, AR 72450, USA",49,35,
paris,arkansas,35.2920325,-93.7299173,"10 W Walnut St, Paris, AR 72855, USA",53,53,
parkin,arkansas,35.2671968,-90.5545418,"109 E Smithdale Ave, Parkin, AR 72373, USA",7,33,
pea ridge,arkansas,36.4539625,-94.1152041,"1391 N Curtis Ave, Pea Ridge, AR 72751, USA",25,23,
perryville,arkansas,35.0048102,-92.8026673,"303 W Main St, Perryville, AR 72126, USA",48,49,
piggott,arkansas,36.382839,-90.1906542,"132 N Front Ave, Piggott, AR 72454, USA",50,46,
pine bluff,arkansas,34.2284312,-92.0031955,"129 S Main St, Pine Bluff, AR 71601, USA",52,45,
plainview,arkansas,34.9895354,-93.2974044,"300 W Main, Plainview, AR 72857, USA",11,28,
plumerville,arkansas,35.1600836,-92.6407177,"64 E Main St, Plumerville, AR 72127, USA",14,28,
pocahontas,arkansas,36.2614554,-90.971233,"110 W Broadway St, Pocahontas, AR 72455, USA",51,30,
pottsville,arkansas,35.2481394,-93.049061,"7082 River Rd, Pottsville, AR 72858, USA",16,30,
prairie grove,arkansas,35.9759145,-94.3177103,"126 W Buchanan St, Prairie Grove, AR 72753, USA",46,42,
prescott,arkansas,33.8026107,-93.3810057,"114 W Main St, Prescott, AR 71857, USA",48,41,
quitman,arkansas,35.3842471,-92.2157074,"10 Bee Branch Rd, Quitman, AR 72131, USA",28,34,
ravenden springs town,arkansas,36.316455,-91.2226306,"118 Elm St, Ravenden Springs, AR 72460, USA",6,13,
ravenden town,arkansas,36.2334012,-91.2517978,"587 S 2nd St, Ravenden, AR 72459, USA",4,21,
redfield,arkansas,34.4450952,-92.1832028,"105 SE Railroad St, Redfield, AR 72132, USA",21,29,
rison,arkansas,33.9584347,-92.1901454,"35 Magnolia St, Rison, AR 71665, USA",29,33,
rogers,arkansas,36.3320196,-94.1185366,"214 W Elm St, Rogers, AR 72756, USA",71,59,
rose bud town,arkansas,35.3314708,-92.0812595,"6039 AR-36, Rose Bud, AR 72137, USA",26,21,
russellville,arkansas,35.2784173,-93.1337856,"100 W Main St, Russellville, AR 72801, USA",74,53,
salem,arkansas,36.3711763,-91.8226479,"111 N Main St, Salem, AR 72576, USA",41,37,
searcy,arkansas,35.2468204,-91.7336846,"210 S Oak St, Searcy, AR 72143, USA",78,61,
shannon hills,arkansas,34.6200931,-92.3954325,"10417 Tall Pine Dr, Mabelvale, AR 72103, USA",29,27,
sheridan,arkansas,34.3070406,-92.4012654,"106 N Oak St, Sheridan, AR 72150, USA",51,41,
sherwood,arkansas,34.8150907,-92.2243153,"402 S Fairway Ave, Sherwood, AR 72120, USA",25,31,10
siloam springs,arkansas,36.1881365,-94.5404962,"123 S Broadway St, Siloam Springs, AR 72761, USA",61,47,
springdale,arkansas,36.18674420000001,-94.1288141,"208-298 E Johnson Ave, Springdale, AR 72764, USA",62,54,
st. charles town,arkansas,34.3729519,-91.1377008,"408 7th St, St Charles, AR 72140, USA",5,25,
stamps,arkansas,33.3654024,-93.4951758,"501 E Antigo St, Stamps, AR 71860, USA",21,23,
star city,arkansas,33.9428794,-91.8434668,"101 N Lincoln Ave, Star City, AR 71667, USA",48,39,
stuttgart,arkansas,34.5003748,-91.5526281,"224 S Main St, Stuttgart, AR 72160, USA",50,48,
sulphur springs,arkansas,36.4834084,-94.4585488,"128 AR-59, Sulphur Springs, AR 72768, USA",20,25,
swifton,arkansas,35.821742,-91.1284584,"205 Ashley Ave, Swifton, AR 72471, USA",16,30,
texarkana,arkansas,33.4417915,-94.0376881,"1924 County Ave, Texarkana, AR 71854, USA",43,41,
trumann,arkansas,35.6736895,-90.5073285,"203 Melton Ave, Trumann, AR 72472, USA",34,39,
tuckerman,arkansas,35.7306327,-91.1984601,"812 Highway 67 s, Tuckerman, AR 72473, USA",30,35,
tyronza,arkansas,35.49008269999999,-90.358711,"210 Main St, Tyronza, AR 72386, USA",20,31,
van buren,arkansas,35.436756,-94.348268,"1098 AR-59, Van Buren, AR 72956, USA",65,50,
vilonia,arkansas,35.083975,-92.2079277,"25 Bush Ln, Vilonia, AR 72173, USA",39,35,
waldron,arkansas,34.8984323,-94.0907634,"251 S Main St, Waldron, AR 72958, USA",40,41,
walnut ridge,arkansas,36.0684035,-90.9559534,"104 W Main St, Walnut Ridge, AR 72476, USA",46,56,
ward,arkansas,35.0303648,-91.950421,"100 2nd St, Ward, AR 72176, USA",20,36,
warren,arkansas,33.6126086,-92.064583,"236 S Main St, Warren, AR 71671, USA",41,47,
weiner,arkansas,35.6203571,-90.8984508,"308 US 49, Weiner, AR 72479, USA",20,36,
west fork,arkansas,35.9242477,-94.1885387,"271 S Campbell Ave, West Fork, AR 72774, USA",40,29,
west memphis,arkansas,35.1464797,-90.1845388,"101 E Broadway Blvd, West Memphis, AR 72301, USA",60,49,
white hall,arkansas,34.2739862,-92.0909766,"106 Cooper St, White Hall, AR 71602, USA",47,42,
wilson,arkansas,35.5681363,-90.04203419999999,"1328, 17 Cortez Kennedy Ave, Wilson, AR 72395, United States",41,32,
wynne,arkansas,35.224533,-90.7867798,"206 S Falls Blvd, Wynne, AR 72396, USA",54,45,
adelanto,california,34.5827699,-117.409215,"11715 Lee Ave, Adelanto, CA 92301, USA",29,49,
agoura hills,california,34.1533395,-118.7616764,"29170 Quail Run Dr, Agoura Hills, CA 91301, USA",68,51,
alameda,california,37.7652065,-122.2416355,"Santa Clara Av:Park St, Alameda, CA 94501, USA",99,86,51
albany,california,37.88687,-122.2977475,"999 San Pablo Ave, Albany, CA 94706, USA",90,98,56
alhambra,california,34.095287,-118.1270146,"Main / Garfield, Alhambra, CA 91801, USA",95,50,
aliso viejo,california,33.5684605,-117.7262981,"36 Journey, Aliso Viejo, CA 92656, USA",82,74,
alturas,california,41.4871146,-120.5424555,"346 N Main St, Alturas, CA 96101, USA",54,44,
american canyon,california,38.1749178,-122.2608044,"100 Joan Dr, American Canyon, CA 94503, USA",46,47,
anaheim,california,33.8365932,-117.9143012,"255 Anaheim Blvd, Anaheim, CA 92805, USA",92,61,43
anderson,california,40.448208,-122.2977815,"2765-2799 CA-273, Anderson, CA 96007, USA",74,49,
angels,california,38.0677832,-120.5385299,"1349 S Main St, Angels Camp, CA 95222, USA",48,12,
antioch,california,38.0049214,-121.805789,"1715 E 18th St, Antioch, CA 94509, USA",87,69,34
apple valley town,california,34.5008311,-117.1858759,"21910 Outer Hwy 18 N, Apple Valley, CA 92307, USA",55,39,31
arcadia,california,34.1397292,-118.0353449,"100 W Huntington Dr, Arcadia, CA 91007, USA",68,53,
arcata,california,40.8665166,-124.0828396,"700 D St, Arcata, CA 95521, USA",91,68,
arroyo grande,california,35.1185868,-120.5907252,"113 S Rena St, Arroyo Grande, CA 93420, USA",74,61,
artesia,california,33.8658484,-118.0831212,"18163 Pioneer Blvd, Artesia, CA 90701, USA",90,57,42
arvin,california,35.2017986,-118.833105,"5701 Franklin St, Arvin, CA 93203, USA",66,40,
atascadero,california,35.4894169,-120.6707255,"5940 El Camino Real, Atascadero, CA 93422, USA",68,57,
atherton town,california,37.4613272,-122.197743,"3295 El Camino Real, Atherton, CA 94027, United States",52,66,
atwater,california,37.3477174,-120.609084,"1298 Cedar Ave, Atwater, CA 95301, USA",79,50,
auburn,california,38.8965654,-121.0768901,"101 Maple St, Auburn, CA 95603, USA",77,25,
avalon,california,33.3428193,-118.3282279,"301 Beacon St, Avalon, CA 90704, USA",76,64,
avenal,california,36.0041223,-120.1290272,"700 Skyline Blvd, Avenal, CA 93204, USA",75,50,
azusa,california,34.1336186,-117.9075627,"88 Auspicious Dr, Azusa, CA 91702, USA",82,61,56
bakersfield,california,35.3732921,-119.0187125,"1401-1499 Truxtun Ave, Bakersfield, CA 93301, USA",83,54,45
baldwin park,california,34.0852868,-117.9608978,"3972 Maine Ave, Baldwin Park, CA 91706, USA",88,58,
banning,california,33.9255713,-116.8764103,"6 N San Gorgonio Ave, Banning, CA 92220, USA",79,48,
barstow,california,34.8957957,-117.0172826,"315 Melissa Ave, Barstow, CA 92311, USA",61,38,37
bear valley cdp (alpine county),california,38.4646337,-120.0399088,"249 Bear Valley Rd, Bear Valley, CA 95223, USA",33,25,
bear valley cdp (mariposa county),california,37.567577,-120.120956,"4984 Bear Valley Rd, Mariposa, CA 95338, USA",5,7,
bear valley springs,california,35.1591307,-118.6284245,"Bear Valley Springs, CA 93561, USA",0,25,
beaumont,california,33.9294606,-116.977248,"380 E 6th St, Beaumont, CA 92223, USA",86,50,
bell,california,33.9775142,-118.1870156,"Atlantic / Gage, Bell, CA 90201, USA",90,54,
bell gardens,california,33.9652918,-118.1514588,"6345 Florence Ave, Bell Gardens, CA 90201, USA",84,57,
bellflower,california,33.8816818,-118.1170117,"17053 Bellflower Bike Trail, Bellflower, CA 90706, USA",73,74,
belmont,california,37.5202145,-122.2758008,"1025 Belmont Station underpass, Belmont, CA 94002, USA",91,74,
belvedere,california,37.8727044,-122.4644171,"105 Acacia Ave, Belvedere Tiburon, CA 94920, USA",61,38,
benicia,california,38.049365,-122.1585777,"632 1st St, Benicia, CA 94510, USA",82,67,
berkeley,california,37.8715926,-122.272747,"University Ave. at Martin Luther King Jr. Way, Berkeley, CA 94704, USA",98,98,68
beverly hills,california,34.0736204,-118.4003563,"486-498 N Rexford Dr, Beverly Hills, CA 90210, USA",89,54,63
big bear city,california,34.2611183,-116.84503,"112 CA-38, Big Bear, CA 92314, USA",47,37,
big bear lake,california,34.2438963,-116.9114215,"40824 Big Bear Blvd, Big Bear Lake, CA 92315, USA",65,64,
biggs,california,39.4123876,-121.7127513,"2997 8th St, Biggs, CA 95917, USA",32,40,
bishop,california,37.3614238,-118.3996636,"487 W Line St, Bishop, CA 93514, USA",79,75,
blythe,california,33.6177725,-114.5882607,"Chanslorway & 7th St., Blythe, CA 92225, USA",50,40,
bradbury,california,34.1469511,-117.9708982,"1561 Lemon Ave, Bradbury, CA 91008, USA",29,24,
brawley,california,32.9786566,-115.530267,"111 N 8th St, Brawley, CA 92227, USA",80,53,
brea,california,33.916475,-117.9002918,"Brea-Imperial, Brea, CA 92821, USA",88,85,
brentwood,california,37.931868,-121.6957863,"Brentwood Blvd & Oak St, Brentwood, CA 94513, USA",89,57,
brisbane,california,37.6807661,-122.3999715,"500 San Bruno Ave, Brisbane, CA 94005, USA",73,39,
broadmoor,california,37.6913628,-122.4807659,"1103 Nimitz Dr, Daly City, CA 94015, USA",65,21,
buellton,california,34.613597,-120.1926505,"51 E Hwy 246, Buellton, CA 93427, USA",71,69,
buena park,california,33.8674044,-117.9981387,"Beach-Auto Center Drive, Buena Park, CA 90621, USA",79,59,40
burbank,california,34.1808392,-118.3089661,"Burbank airport, Burbank, CA 91502, USA",87,67,53
burlingame,california,37.5778696,-122.34809,"1401 Burlingame Ave, Burlingame, CA 94010, USA",98,83,
calabasas,california,34.1367208,-118.6614809,"3715 Cll Jazmin, Calabasas, CA 91302, USA",30,7,
calexico,california,32.6789476,-115.4988834,"1011 S Imperial Ave, Calexico, CA 92231, USA",84,50,
california city,california,35.125801,-117.9859038,"7987 California City Blvd, California City, CA 93505, USA",48,55,
calimesa,california,34.0039039,-117.0619755,"996 County Line Rd, Calimesa, CA 92320, USA",62,44,
calistoga,california,38.5787965,-122.5797054,"PO Box 302, Calistoga, CA 94515, United States",84,80,
camarillo,california,34.2163937,-119.0376023,"2402 Ventura Blvd, Camarillo, CA 93010, USA",91,58,
campbell,california,37.2871651,-121.9499568,"486 E Campbell Ave, Campbell, CA 95008, USA",93,82,47
canyon lake,california,33.6850215,-117.2730931,"31566 Railroad Canyon Rd & St. 2 PMB 620, Canyon Lake, CA 92587, United States",2,25,
capitola,california,36.9752283,-121.953293,"501 Capitola Ave, Capitola, CA 95010, USA",92,72,
carlsbad,california,33.1580933,-117.3505939,"3016 Carlsbad Blvd, Carlsbad, CA 92008, USA",89,72,33
carmel valley village,california,36.4799024,-121.7327931,"3 Village Dr, Carmel Valley, CA 93924, USA",55,37,
carmel-by-the-sea,california,36.5552386,-121.9232879,"800 Ocean Ave, Carmel-By-The-Sea, CA 93923, USA",90,57,
carpinteria,california,34.39888380000001,-119.5184564,"991 Linden Ave, Carpinteria, CA 93013, USA",88,79,
carson,california,33.8316745,-118.281693,"Carson St at Moneta Av, Carson, CA 90745, USA",74,54,
cathedral city,california,33.7805388,-116.4668036,"68895 Perez Road Units 1-4, Cathedral City, CA 92234, United States",64,45,
ceres,california,37.5949316,-120.9577098,"2029 E Whitmore Ave, Ceres, CA 95307, USA",79,59,18
cerritos,california,33.8583483,-118.0647871,"12506 South St, Cerritos, CA 90703, USA",58,62,
chico,california,39.7284944,-121.8374777,"3199 plummer drive, Chico, CA 95928, USA",95,73,
chino,california,34.0122346,-117.688944,"13271 Central Ave, Chino, CA 91710, USA",74,56,33
chino hills,california,33.9898188,-117.7325848,"3316 Eucalyptus Ave, Chino Hills, CA 91709, USA",35,40,20
chowchilla,california,37.1229997,-120.2601754,"200 Robertson Blvd, Chowchilla, CA 93610, USA",69,50,
chula vista,california,32.6400541,-117.0841955,"302 4th Ave, Chula Vista, CA 91910, USA",87,63,50
citrus heights,california,38.7071247,-121.2810611,"7754 Mariposa Ave, Citrus Heights, CA 95610, USA",52,57,
claremont,california,34.0966764,-117.7197785,"315 N Indian Hill Blvd, Claremont, CA 91711, USA",92,69,
clayton,california,37.9410341,-121.9357925,"1030 Diablo St, Clayton, CA 94517, USA",71,43,
clearlake,california,38.9582307,-122.6263728,"15427 Duncan Ave, Clearlake, CA 95422, USA",43,27,
cloverdale,california,38.8054624,-123.0172227,"108 N Cloverdale Blvd, Cloverdale, CA 95425, USA",80,64,
clovis,california,36.8252277,-119.7029194,"508 4th St, Clovis, CA 93612, USA",75,71,27
coachella,california,33.6803003,-116.173894,"85900 Grapefruit Blvd, Coachella, CA 92236, USA",58,47,
coalinga,california,36.139678,-120.3601496,"100-198 Coalinga Plaza, Coalinga, CA 93210, USA",84,50,
colma town,california,37.6768779,-122.459695,"1188 CA-82, Colma, CA 94014, USA",38,37,
colton,california,34.0739016,-117.3136547,"816 Colton Ave, Colton, CA 92324, USA",82,72,30
colusa,california,39.2143343,-122.0094175,"Serving Your Area, Colusa, CA 95932, United States",60,53,
commerce,california,34.0005691,-118.1597929,"Eastern / Washington, Commerce, CA 90040, USA",80,61,
compton,california,33.8958492,-118.2200712,"298 E Compton Blvd, Compton, CA 90221, USA",86,62,
concord,california,37.9779776,-122.0310733,"2349 Willow Pass Rd, Concord, CA 94520, USA",90,63,50
corcoran,california,36.098007,-119.5604015,"1025 Whitley Ave, Corcoran, CA 93212, USA",78,51,
corning,california,39.9276572,-122.1791556,"1081 Solano St, Corning, CA 96021, USA",74,53,
corona,california,33.8752935,-117.5664384,"114 E 6th St, Corona, CA 92879, USA",88,49,35
coronado,california,32.6858853,-117.1830891,"827 Tolita Ave, Coronado, CA 92118, USA",85,76,30
costa mesa,california,33.6412156,-117.9188221,"1209 Harbor Blvd, Costa Mesa, CA 92627, USA",92,74,41
cotati,california,38.3293416,-122.7096666,"7885A Old Redwood Hwy, Cotati, CA 94931, USA",87,69,
covina,california,34.0900091,-117.8903397,"413 N Citrus Ave, Covina, CA 91723, USA",86,53,38
crescent city,california,41.7557501,-124.2025913,"701 9th St, Crescent City, CA 95531, USA",75,71,
cudahy,california,33.9608646,-118.1857858,"Atlantic / Santa Ana, Cudahy, CA 90201, USA",72,58,
culver city,california,34.0211224,-118.3964665,"9900 Culver Blvd, Culver City, CA 90232, USA",97,80,61
cupertino,california,37.3229978,-122.0321823,"20451 Stevens Creek Blvd, Cupertino, CA 95014, USA",84,82,48
cypress,california,33.8169366,-118.0368507,"Ball-Walker, Cypress, CA 90630, USA",71,72,25
daly city,california,37.6879241,-122.4702079,"95 Washington St, Daly City, CA 94014, USA",86,45,56
dana point,california,33.4672256,-117.6981014,"34181 Pacific Coast Hwy, Dana Point, CA 92629, USA",93,73,28
danville town,california,37.8215929,-121.9999606,"381-395 Hartz Ave, Danville, CA 94526, USA",86,85,
davis,california,38.5449065,-121.7405167,"615 3rd St, Davis, CA 95616, USA",96,100,53
del mar,california,32.9594891,-117.2653146,"1500 Camino Del Mar, Del Mar, CA 92014, USA",83,49,
del rey oaks,california,36.5932934,-121.8349515,"Via Verde / Canyon Del Rey, Del Rey Oaks, CA 93940, USA",22,13,
delano,california,35.7688425,-119.2470536,"998 S High St, Delano, CA 93215, USA",91,50,
desert hot springs,california,33.961124,-116.5016784,"12021 Palm Dr, Desert Hot Springs, CA 92240, USA",70,,28
diamond bar,california,34.0286226,-117.8103367,"504 N Diamond Bar Blvd, Diamond Bar, CA 91765, USA",62,30,
dinuba,california,36.5432837,-119.3870656,"401 E Tulare St, Dinuba, CA 93618, USA",84,57,
dixon,california,38.4454641,-121.8232958,"131 W A St, Dixon, CA 95620, USA",79,50,
dorris,california,41.9673696,-121.91806,"116 Main N St, Dorris, CA 96023, USA",37,40,
dos palos,california,36.9860582,-120.6265722,"1427 Center Ave, Dos Palos, CA 93620, USA",76,49,
downey,california,33.9401088,-118.1331593,"Firestone / Downey, Downey, CA 90241, USA",90,54,
duarte,california,34.1394513,-117.9772873,"Huntington Dr and Buena Vista St E, Duarte, CA 91010, USA",86,65,
dublin,california,37.7021521,-121.9357918,"7007 San Ramon Rd, Dublin, CA 94568, USA",77,75,
dunsmuir,california,41.2082089,-122.2719529,"5957 Sacramento Ave, Dunsmuir, CA 96025, USA",51,25,
east palo alto,california,37.4688273,-122.1410751,"2300 University Ave, East Palo Alto, CA 94303, USA",78,74,
eastvale,california,33.952463,-117.5848025,"7468 Sungold Ave, Eastvale, CA 92880, USA",25,34,
el cajon,california,32.7947731,-116.9625269,"124 S Magnolia Ave, El Cajon, CA 92020, USA",92,62,47
el centro,california,32.792,-115.5630514,"950 W State St, El Centro, CA 92243, USA",77,51,
el cerrito,california,37.9161326,-122.310765,"3060 El Cerrito Plaza #331, El Cerrito, CA 94530, United States",86,79,47
el monte,california,34.0686206,-118.0275667,"3400 Peck Rd, El Monte, CA 91731, USA",82,57,57
el segundo,california,33.9191799,-118.4164652,"113 W Grand Ave, El Segundo, CA 90245, USA",76,51,
elk grove,california,38.4087993,-121.3716178,"8896 Elk Grove Blvd, Elk Grove, CA 95624, USA",76,65,
emeryville,california,37.831316,-122.2852473,"1301-1333 Park Ave, Emeryville, CA 94608, USA",88,94,
encinitas,california,33.0369867,-117.2919818,"1163 S Coast Hwy 101, Encinitas, CA 92024, USA",76,48,
escalon,california,37.7974273,-120.9966033,"1404 Main St, Escalon, CA 95320, USA",77,53,
escondido,california,33.1192068,-117.086421,"970 W Valley Parkway #1006, Escondido, CA 92025, United States",88,63,55
etna,california,41.4568065,-122.8947551,"450 Pig Alley, Etna, CA 96027, USA",47,46,
eureka,california,40.8020712,-124.1636729,"503 H St, Eureka, CA 95501, USA",94,98,
exeter,california,36.2960613,-119.1420517,"201 N F St, Exeter, CA 93221, USA",79,57,
fairfax town,california,37.9871454,-122.5888686,"POB 74, Fairfax, CA 94930, United States",91,78,
fairfield,california,38.2491956,-122.0405151,"600 Texas St, Fairfield, CA 94533, USA",85,63,37
farmersville,california,36.2977283,-119.2067767,"161 E Visalia Rd, Farmersville, CA 93223, USA",65,45,
ferndale,california,40.5762406,-124.2639441,"394 Main St, Fortuna, CA 95540, USA",59,47,
fillmore,california,34.3991639,-118.918154,"348 A St, Fillmore, CA 93015, USA",84,63,
firebaugh,california,36.8588376,-120.4560072,"1101 O St, Firebaugh, CA 93622, USA",69,50,
folsom,california,38.6779591,-121.1760583,"600-698 Sutter St, Folsom, CA 95630, USA",75,63,
fontana,california,34.0922335,-117.435048,"16932 Merrill Ave, Fontana, CA 92335, USA",80,51,47
fort bragg,california,39.445723,-123.8052935,"125 E Laurel St, Fort Bragg, CA 95437, USA",90,72,
fort jones,california,41.6076387,-122.8403099,"29 Sterling St, Fort Jones, CA 96032, USA",41,15,
fortuna,california,40.5981867,-124.1572756,"926 Main St, Fortuna, CA 95540, USA",63,58,
foster city,california,37.5585465,-122.2710788,"Shell Blvd & E Hillsdale Blvd, Foster City, CA 94404, USA",73,58,
fountain valley,california,33.7090212,-117.9544069,"Brookhurst-Slater, Fountain Valley, CA 92708, USA",68,64,29
fowler,california,36.6305058,-119.6784697,"207 E Merced St, Fowler, CA 93625, USA",79,55,
fremont,california,37.5482697,-121.9885719,"4025 Mowry Ave, Fremont, CA 94538, USA",88,66,47
fresno,california,36.7377981,-119.7871247,"2323 Mariposa St, Fresno, CA 93721, USA",91,83,52
fullerton,california,33.8703645,-117.9242123,"162-100 El Camino Real, Fullerton, CA 92832, USA",97,52,45
galt,california,38.2546373,-121.2999485,"814 A St, Galt, CA 95632, USA",88,50,
garden grove,california,33.7742692,-117.9379952,"12999 S Euclid St, Garden Grove, CA 92843, USA",85,55,30
gardena,california,33.8883487,-118.3089624,"Redondo Beach Bl & Western Ave, Gardena, CA 90247, USA",91,61,37
gilroy,california,37.0057816,-121.5682751,"7353 Monterey Rd, Gilroy, CA 95020, USA",91,84,
glendale,california,34.1425078,-118.255075,"100 E Colorado St, Glendale, CA 91204, USA",96,64,61
glendora,california,34.1361187,-117.865339,"100 N Glendora Ave, Glendora, CA 91741, USA",85,54,35
goleta,california,34.4358294,-119.8276389,"5842 Hollister Ave, Goleta, CA 93117, USA",77,83,
gonzales,california,36.5066295,-121.4443806,"338 Alta St, Gonzales, CA 93926, USA",66,49,
grand terrace,california,34.0339031,-117.3136544,"22483 Barton Rd, Grand Terrace, CA 92313, USA",74,52,
grass valley,california,39.2190608,-121.0610606,"125 E Main St, Grass Valley, CA 95945, USA",89,49,
greenfield,california,36.3207998,-121.2438138,"201 El Camino Real, Greenfield, CA 93927, USA",77,50,
gridley,california,39.3637773,-121.6935833,"460 Washington St, Gridley, CA 95948, USA",82,50,
grover beach,california,35.1216424,-120.6212821,"835 W Grand Ave, Grover Beach, CA 93433, USA",87,59,
guadalupe,california,34.971644,-120.5718363,"4589 10th St, Guadalupe, CA 93434, USA",58,54,
gustine,california,37.2577171,-120.9988154,"403 3rd Ave, Gustine, CA 95322, USA",73,48,
hanford,california,36.3274502,-119.6456844,"219 N Douty St, Hanford, CA 93230, USA",95,64,34
hawaiian gardens,california,33.8314045,-118.0728424,"7065001033, Hawaiian Gardens, CA 90716, United States",90,77,
hawthorne,california,33.9164032,-118.3525748,"El Segundo Bl & Hawthorne Bl, Hawthorne, CA 90250, USA",90,60,40
hayward,california,37.6688205,-122.0807964,"22898 CA-185, Hayward, CA 94541, USA",94,53,61
healdsburg,california,38.6104658,-122.8691609,"122 Matheson St, Healdsburg, CA 95448, USA",92,73,
hemet,california,33.7475203,-116.9719684,"172-100 S Inez St, Hemet, CA 92543, USA",87,62,
hercules,california,38.0171441,-122.2885808,"2039 Railroad Ave, Hercules, CA 94547, USA",32,37,
hermosa beach,california,33.8622366,-118.3995194,"205 Pier Ste 103-B, Hermosa Beach, CA 90254, United States",96,80,
hesperia,california,34.4263886,-117.3008784,"9646 Hesperia Rd, Hesperia, CA 92345, USA",46,46,
hidden hills,california,34.16028319999999,-118.6523096,"5303 Lasher Rd, Hidden Hills, CA 91302, USA",8,3,
highland,california,34.1283442,-117.2086513,"27265 Pacific St, Highland, CA 92346, USA",55,39,29
hillsborough town,california,37.5741032,-122.3794163,"2500 Summit Dr, Hillsborough, CA 94010, USA",12,8,
hollister,california,36.8524545,-121.4016021,"401 San Benito St, Hollister, CA 95023, USA",94,53,18
holtville,california,32.8111612,-115.3802643,"101 W 5th St, Holtville, CA 92250, USA",47,54,
hughson,california,37.6027244,-120.8664811,"7448 Fox Rd, Hughson, CA 95326, USA",61,45,
huntington beach,california,33.6594835,-117.9988026,"310 Orange Ave, Huntington Beach, CA 92648, USA",77,73,35
huntington park,california,33.9816812,-118.2250725,"Gage / Pacific, Huntington Park, CA 90255, USA",94,59,60
huron,california,36.2027308,-120.1029177,"15799 9th St, Huron, CA 93234, USA",59,48,
imperial,california,32.8475528,-115.5694391,"115 E Barioni Blvd, Imperial, CA 92251, USA",59,45,
imperial beach,california,32.5839444,-117.1130849,"Palm Av & Emory St, Imperial Beach, CA 91932, USA",86,66,38
indian wells,california,33.717631,-116.3407549,"75682 Painted Desert Dr, Indian Wells, CA 92210, USA",11,46,
indio,california,33.7205771,-116.2155619,"83100 Indio Blvd, Indio, CA 92201, USA",69,70,
industry,california,34.0197335,-117.9586754,"722 Parriott Pl, La Puente, CA 91745, USA",55,44,
inglewood,california,33.9616801,-118.3531311,"202 E Manchester Blvd, Inglewood, CA 90301, USA",95,61,54
ione,california,38.3526912,-120.9327177,"22 CA-104, Ione, CA 95640, USA",54,46,
irvine,california,33.6845673,-117.8265049,"Harvard-Alton, Irvine, CA, USA",61,82,36
irwindale,california,34.1069527,-117.9353413,"15814 Arrow Hwy, Irwindale, CA 91706, USA",44,53,
isleton,california,38.1618614,-121.6116206,"210 Victory Hwy, Isleton, CA 95641, USA",37,39,
jackson,california,38.3488023,-120.7741018,"39 Main St, Jackson, CA 95642, USA",79,25,
kensington,california,37.9104805,-122.2802471,"Arlington Av:Westminster Av, Kensington, CA, USA",31,25,
kerman,california,36.72355719999999,-120.059879,"756 S Madera Ave, Kerman, CA 93630, USA",74,50,
king city,california,36.2127439,-121.1260287,"231 Broadway St, King City, CA 93930, USA",79,58,
kingsburg,california,36.5138398,-119.5540175,"1496 California St, Kingsburg, CA 93631, USA",87,50,
la habra,california,33.9318591,-117.946137,"110 W La Habra Blvd, La Habra, CA 90631, USA",82,61,
la habra heights,california,33.9608461,-117.9506186,"510 Church Hill Rd, La Habra Heights, CA 90631, USA",3,1,
la mesa,california,32.7678287,-117.0230839,"8118 University Ave, La Mesa, CA 91942, USA",92,48,48
la mirada,california,33.9172357,-118.0120086,"12333 Imperial Hwy, Whittier, CA 90604, USA",75,72,
la palma,california,33.8463218,-118.0461393,"5013 La Palma Ave, La Palma, CA 90623, USA",70,74,
la puente,california,34.0200114,-117.9495083,"15955 Main St, La Puente, CA 91744, USA",81,47,
la quinta,california,33.6633573,-116.3100095,"53035 Avenida Herrera, La Quinta, CA 92253, USA",17,28,
la verne,california,34.1008426,-117.7678355,"2350 E St, La Verne, CA 91750, USA",74,59,
lafayette,california,37.8857582,-122.1180201,"872 Moraga Rd, Lafayette, CA 94549, USA",78,73,
laguna beach,california,33.5427189,-117.7853568,"211 CA-1, Laguna Beach, CA 92651, USA",93,47,29
laguna hills,california,33.5916433,-117.6986604,"Paseo De Valencia-Alicia, Laguna Hills, CA 92653, USA",72,58,28
laguna niguel,california,33.5236744,-117.7149438,"30250 Crown Valley Pkwy, Laguna Niguel, CA 92677, USA",76,62,
laguna woods,california,33.6101702,-117.7251162,"El Toro-Moulton, Laguna Woods, CA 92637, USA",66,53,
lake elsinore,california,33.6680772,-117.3272615,"104 N Main St, Lake Elsinore, CA 92530, USA",70,21,
lake forest,california,33.6469437,-117.6861023,"Lake Forest-Trabuco, Lake Forest, CA 92630, USA",78,58,
lakeport,california,39.0429506,-122.9158293,"175 2nd St, Lakeport, CA 95453, USA",70,42,
lakewood,california,33.8536269,-118.1339563,"5247 Clark Ave, Lakewood, CA 90712, USA",82,58,
lancaster,california,34.6867846,-118.1541632,"1304 W Ave J, Lancaster, CA 93534, USA",54,56,
lawndale,california,33.887237,-118.3525744,"Manhattan Beach / Hawthorne, Lawndale, CA 90260, USA",88,63,43
lemon grove,california,32.7425516,-117.0314172,"7771 Broadway, Lemon Grove, CA 91945, USA",94,52,47
lemoore,california,36.3007835,-119.7829107,"153 C St, Lemoore, CA 93245, USA",87,67,
lincoln,california,38.891565,-121.2930079,"436 G St, Lincoln, CA 95648, USA",83,58,
lindsay,california,36.2030064,-119.08816,"246 E Honolulu St, Lindsay, CA 93247, USA",78,50,
livermore,california,37.6818745,-121.7680088,"2788 S Livermore Ave, Livermore, CA 94550, USA",99,79,
livingston,california,37.3868826,-120.7235329,"344 Main St, Livingston, CA 95334, USA",75,52,
lodi,california,38.1341477,-121.2722194,"1 E Pine St, Lodi, CA 95240, USA",96,65,
loma linda,california,34.0483474,-117.2611527,"Unnamed Road, Loma Linda, CA 92354, United States",58,52,35
lomita,california,33.7922392,-118.3150722,"25501 Eshelman Ave, Lomita, CA 90717, USA",88,73,40
lompoc,california,34.6391501,-120.4579409,"101 N H St, Lompoc, CA 93436, USA",89,70,
long beach,california,33.7700504,-118.1937395,"249299 Pacific Avenue, Long Beach, CA 90802, USA",95,85,74
los alamitos,california,33.8032009,-118.0718894,"Katella-Los Alamitos, Los Alamitos, CA 90720, USA",82,54,
los altos,california,37.3852183,-122.1141298,"San Antonio & Almond, Los Altos, CA 94022, USA",71,85,26
los altos hills town,california,37.3796627,-122.1374637,"12735 Alto Verde Ln, Los Altos Hills, CA 94022, USA",6,26,
los angeles,california,34.0522342,-118.2436849,"106 W 1st St, Los Angeles, CA 90012, USA",93,80,100
los banos,california,37.0582786,-120.8499151,"1135 6th St, Los Banos, CA 93635, USA",87,52,
los gatos town,california,37.2358078,-121.9623751,"16006 Los Gatos Blvd, Los Gatos, CA 95032, USA",86,85,
lynwood,california,33.930293,-118.2114603,"11171 Long Beach Blvd, Lynwood, CA 90262, USA",93,55,
madera,california,36.9613356,-120.0607176,"100 N Gateway Dr, Madera, CA 93637, USA",89,61,29
malibu,california,34.0259216,-118.7797571,"27807 CA-1, Malibu, CA 90265, USA",8,15,
mammoth lakes town,california,37.648546,-118.972079,"3372 Main St, Mammoth Lakes, CA 93546, USA",62,81,
manhattan beach,california,33.8847361,-118.4109089,"1125 Manhattan Ave, Manhattan Beach, CA 90266, USA",92,66,
manteca,california,37.7974273,-121.2160526,"127 E Yosemite Ave, Manteca, CA 95336, USA",94,71,
marina,california,36.68440289999999,-121.802173,"3100 Del Monte Blvd, Marina, CA 93933, USA",80,81,
martinez,california,38.0193657,-122.1341321,"651 Pine St, Martinez, CA 94553, USA",87,84,
marysville,california,39.1457253,-121.5913547,"1001-1025 State Hwy 20, Marysville, CA 95901, USA",81,65,
maywood,california,33.9866807,-118.185349,"5900 Atlantic Blvd, Maywood, CA 90270, USA",95,62,
mcfarland,california,35.6780104,-119.2292748,"150 W Kern Ave, McFarland, CA 93250, USA",71,49,
mendota,california,36.7535611,-120.3815574,"719 Quince St, Mendota, CA 93640, USA",75,47,
menifee,california,33.6971468,-117.185294,"27234 Pinehurst Rd, Sun City, CA 92586, USA",12,32,
menlo park,california,37.4529598,-122.1817252,"1001 El Camino Real, Menlo Park, CA 94025, USA",95,95,45
merced,california,37.3021632,-120.4829677,"1731 Canal St, Merced, CA 95340, USA",93,70,
mill valley,california,37.9060368,-122.5449763,"87 E Blithedale Ave, Mill Valley, CA 94941, USA",89,55,
milpitas,california,37.4323341,-121.8995741,"419 CA-237, Milpitas, CA 95035, USA",72,76,37
mission viejo,california,33.5968913,-117.6581562,"27000-27060 La Paz Rd, Mission Viejo, CA 92692, USA",80,72,
modesto,california,37.63909719999999,-120.9968782,"781 11th St, Modesto, CA 95354, USA",87,63,55
monrovia,california,34.1442616,-118.0019482,"137 W Walnut Ave, Monrovia, CA 91016, USA",89,60,35
montague,california,41.7281985,-122.5278007,"100 S 11th St, Montague, CA 96064, USA",41,37,
montclair,california,34.0775104,-117.6897776,"Central @ San Bernardino Sb Fs, Montclair, CA 91763, USA",81,51,32
monte sereno,california,37.23633299999999,-121.992458,"15960 Greenwood Rd, Monte Sereno, CA 95030, USA",21,41,
montebello,california,34.0165053,-118.1137535,"1301-1411 W Harding Ave, Montebello, CA 90640, USA",81,55,
monterey,california,36.6002378,-121.8946761,"140 W Franklin St, Monterey, CA 93940, USA",87,85,44
monterey park,california,34.0625106,-118.1228476,"Garvey / Garfield, Monterey Park, CA, USA",94,54,
moorpark,california,34.285558,-118.8820414,"15 E High St, Moorpark, CA 93021, USA",83,55,
moraga town,california,37.8349263,-122.1296871,"1400 Moraga Way, Moraga, CA 94556, USA",63,67,
moreno valley,california,33.9424658,-117.2296717,"24805 Hemlock Ave, Moreno Valley, CA 92557, USA",66,46,33
morgan hill,california,37.1305012,-121.6543901,"17600 Monterey Rd, Morgan Hill, CA 95037, USA",87,83,40
morro bay,california,35.3659445,-120.8499924,"Main St and, Morro Bay Blvd, Morro Bay, CA 93442, United States",81,57,
mount shasta,california,41.3098746,-122.3105666,"418 S Mt Shasta Blvd, Mt Shasta, CA 96067, USA",68,45,
mountain view,california,37.3860517,-122.0838511,"790 W El Camino Real, Mountain View, CA 94040, USA",90,96,49
murrieta,california,33.5539143,-117.2139232,"24792 Washington Ave, Murrieta, CA 92562, USA",63,48,18
napa,california,38.2975381,-122.286865,"853 Coombs St, Napa, CA 94559, USA",94,86,28
national city,california,32.6781085,-117.0991967,"999-701 I Ave, National City, CA 91950, USA",97,69,55
needles,california,34.8480597,-114.6141315,"1701 Needles Hwy, Needles, CA 92363, USA",37,41,
nevada city,california,39.2615606,-121.0160594,"107 Sacramento St, Nevada City, CA 95959, USA",57,25,
newark,california,37.5296593,-122.0402399,"7541 Thornton Ave, Newark, CA 94560, USA",69,53,
newman,california,37.3138267,-121.0207614,"1459 N St, Newman, CA 95360, USA",79,52,
newport beach,california,33.6188829,-117.9298493,"3600 Newport Blvd, Newport Beach, CA 92663, USA",88,82,33
norco,california,33.9311257,-117.548661,"1281 Fifth St, Norco, CA 92860, USA",38,37,
norwalk,california,33.9022367,-118.081733,"1182 Rosecrans Ave, Norwalk, CA 90650, USA",79,54,42
novato,california,38.1074198,-122.5697032,"997 Grant Ave, Novato, CA 94945, USA",89,63,46
oakdale,california,37.7665947,-120.8471545,"325a CA-108, Oakdale, CA 95361, USA",84,52,
oakland,california,37.8043637,-122.2711137,"1395 Broadway, Oakland, CA 94612, USA",100,91,84
oakley,california,37.9974219,-121.7124536,"3617 Main St, Oakley, CA 94561, USA",72,55,
oceanside,california,33.1958696,-117.3794834,"500 Mission Ave, Oceanside, CA 92054, USA",95,77,50
ojai,california,34.4480495,-119.242889,"423 E Ojai Ave, Ojai, CA 93023, USA",89,83,
ontario,california,34.0633443,-117.6508876,"100 N Euclid Ave, Ontario, CA 91762, USA",83,54,33
orange,california,33.7879139,-117.8531007,"1 Plaza Square, Orange, CA 92866, USA",90,56,40
orange cove,california,36.624394,-119.3137301,"711 Park Blvd, Orange Cove, CA 93646, USA",71,59,
orinda,california,37.8771476,-122.1796888,"93 Moraga Way, Orinda, CA 94563, USA",53,46,
orland,california,39.7473803,-122.1963748,"510 Walker St, Orland, CA 95963, USA",83,57,
oroville,california,39.5137752,-121.556359,"1919 Montgomery St, Oroville, CA 95965, USA",67,68,
oxnard,california,34.1975048,-119.1770516,"108 E 5th St, Oxnard, CA 93030, USA",95,63,46
pacific grove,california,36.6177374,-121.9166215,"485 Pine Ave, Pacific Grove, CA 93950, USA",90,68,
pacifica,california,37.6138253,-122.4869194,"160 Reina Del Mar Ave, Pacifica, CA 94044, USA",55,46,
palm desert,california,33.7222445,-116.3744556,"73950 Alessandro Dr, Palm Desert, CA 92260, USA",79,56,
palm springs,california,33.8302961,-116.5452921,"201 E Alejo Rd, Palm Springs, CA 92262, USA",59,62,36
palmdale,california,34.5794343,-118.1164613,"700 Sierra Hwy, Palmdale, CA 93550, USA",81,59,
palo alto,california,37.4418834,-122.1430195,"668 Coleridge Ave, Palo Alto, CA 94301, USA",44,78,29
palos verdes estates,california,33.8005714,-118.3900737,"267 Palos Verdes Dr W, Palos Verdes Estates, CA 90274, USA",44,18,
paradise,california,39.7596061,-121.6219177,"765 Elliott Rd, Paradise, CA 95969, USA",64,55,
paramount,california,33.8894598,-118.1597911,"15754 Paramount Blvd, Paramount, CA 90723, USA",89,58,
parlier,california,36.6116174,-119.5270734,"660 Fresno St, Parlier, CA 93648, USA",64,48,
pasadena,california,34.1477849,-118.1445155,"279 E Holly St, Pasadena, CA 91101, USA",98,79,66
patterson,california,37.4716001,-121.129656,"10 S 3rd St, Patterson, CA 95363, USA",86,50,
perris,california,33.7825194,-117.2286478,"359-325 S D St, Perris, CA 92570, USA",80,56,
petaluma,california,38.232417,-122.6366524,"201 Petaluma Blvd S, Petaluma, CA 94952, USA",92,57,37
pico rivera,california,33.9830688,-118.096735,"6750 Rosemead Blvd, Pico Rivera, CA 90660, USA",82,58,
piedmont,california,37.8243715,-122.231635,"356 Highland Ave, Piedmont, CA 94611, USA",56,27,
pinole,california,38.0043667,-122.2988587,"1588 San Pablo Ave, Pinole, CA 94564, USA",67,36,
pismo beach,california,35.1427533,-120.6412827,"891 US-101 BUS, Pismo Beach, CA 93449, USA",76,63,
pittsburg,california,38.0279762,-121.8846806,"160 E 10th St, Pittsburg, CA 94565, USA",86,51,
placentia,california,33.8710729,-117.8627548,"Kraemer-Chapman, Placentia, CA 92870, USA",58,49,31
placerville,california,38.7296252,-120.798546,"3025 Sacramento St, Placerville, CA 95667, USA",71,32,
pleasant hill,california,37.9479786,-122.0607963,"Gregory Ln/Contra Costa Blvd, Pleasant Hill, CA 94523, USA",87,71,31
pleasanton,california,37.6624312,-121.8746789,"652 Main St, Pleasanton, CA 94566, USA",94,68,35
pomona,california,34.055103,-117.7499909,"Garey Ave and Mission S, Pomona, CA 91766, USA",89,53,51
port hueneme,california,34.1477829,-119.1951074,"425 E Port Hueneme Rd, Port Hueneme, CA 93041, USA",78,63,32
porterville,california,36.06523,-119.0167679,"8 W Olive Ave, Porterville, CA 93257, USA",88,52,
poway,california,32.9628232,-117.0358646,"13608 Putney Rd, Poway, CA 92064, USA",78,62,
rancho cordova,california,38.5890723,-121.302728,"10400-10416 Folsom Blvd, Rancho Cordova, CA 95670, USA",78,64,43
rancho cucamonga,california,34.10639889999999,-117.5931084,"9719 E Foothill Blvd, Rancho Cucamonga, CA 91730, USA",67,64,30
rancho mirage,california,33.739744,-116.41279,"42511 E Veldt St, Rancho Mirage, CA 92270, USA",58,51,
rancho palos verdes,california,33.7444613,-118.3870173,"11 Barkentine Rd, Rancho Palos Verdes, CA 90275, USA",22,17,
rancho santa margarita,california,33.640171,-117.602832,"30102 Santa Margarita Pkwy, Rancho Santa Margarita, CA 92688, USA",50,59,
red bluff,california,40.1784886,-122.2358302,"810 Main St, Red Bluff, CA 96080, USA",67,52,
redding,california,40.5865396,-122.3916754,"1289 CA-273, Redding, CA 96001, USA",77,91,33
redlands,california,34.0555693,-117.1825381,"18 E Citrus Ave, Redlands, CA 92373, USA",85,92,
redondo beach,california,33.8491816,-118.3884078,"501 Beryl St, Redondo Beach, CA 90277, USA",93,93,
redwood city,california,37.48521520000001,-122.2363548,"1201 Brewster Ave, Redwood City, CA 94062, USA",94,88,
reedley,california,36.5963395,-119.4504029,"1108 G St, Reedley, CA 93654, USA",89,77,
rialto,california,34.1064001,-117.3703235,"Riverside @ Foothill Sb Fs, Rialto, CA 92376, USA",84,55,34
richmond,california,37.9357576,-122.3477486,"2235 Macdonald Ave, Richmond, CA 94801, USA",90,76,53
ridgecrest,california,35.6224561,-117.6708966,"634 S China Lake Blvd, Ridgecrest, CA 93555, USA",83,71,
rio dell,california,40.4993013,-124.1064369,"40 W Davis St, Rio Dell, CA 95562, USA",40,42,
rio vista,california,38.1557502,-121.6913439,"107 Main St, Rio Vista, CA 94571, USA",78,50,
ripon,california,37.7394537,-121.1354141,"P O Box 509, Ripon, CA 95366, United States",63,67,
riverbank,california,37.7360396,-120.9354895,"3300 Santa Fe St, Riverbank, CA 95367, USA",79,50,
riverside,california,33.9806005,-117.3754942,"3900 Main St, Riverside, CA 92501, USA",94,69,48
rocklin,california,38.7907339,-121.2357828,"5175 Pacific St, Rocklin, CA 95677, USA",72,79,26
rohnert park,california,38.3396367,-122.7010984,"491 Alta Ave, Rohnert Park, CA 94928, USA",48,50,
rolling hills,california,33.7569615,-118.3539613,"12 Crest Rd W, Rolling Hills, CA 90274, USA",4,1,
rolling hills estates,california,33.7877943,-118.3581284,"Hawthorne / Palos Verdes Dr North, Rolling Hills Estates, CA 90274, USA",18,15,
rosemead,california,34.0805651,-118.072846,"9000 Valley Blvd, Rosemead, CA 91770, USA",89,55,41
roseville,california,38.7521235,-121.2880059,"301-307 Washington Blvd, Roseville, CA 95678, USA",80,69,30
ross town,california,37.9624239,-122.5549775,"Sir Francis Drake Blvd & Lagunitas Rd, Ross, CA 94957, USA",62,54,
rossmoor,california,33.7855722,-118.0850642,"12201 Foster Rd, Los Alamitos, CA 90720, USA",29,51,
sacramento,california,38.5815719,-121.4943996,"907 9th St, Sacramento, CA 95814, USA",96,98,66
salinas,california,36.6777372,-121.6555013,"1 Main St, Salinas, CA 93901, USA",83,60,43
san bernardino,california,34.1083449,-117.2897652,"300-312 W 5th St, San Bernardino, CA 92401, USA",73,55,46
san bruno,california,37.6304904,-122.4110835,"222 San Bruno Ave E, San Bruno, CA 94066, USA",90,64,
san clemente,california,33.4273521,-117.6126004,"99 Avenida Del Mar, San Clemente, CA 92672, USA",87,40,
san diego,california,32.715738,-117.1610838,"998 Fourth Ave, San Diego, CA 92101, USA",99,84,83
san dimas,california,34.1066756,-117.8067257,"Bonita Ave and San Dimas Ave E, San Dimas, CA 91773, USA",84,55,
san fernando,california,34.2819461,-118.4389719,"801 Truman St, San Fernando, CA 91340, USA",96,80,50
san francisco,california,37.7749295,-122.4194155,"Unnamed Road, San Francisco, CA 94102, USA",99,97,92
san gabriel,california,34.09611110000001,-118.1058333,"420 W Mission Rd, San Gabriel, CA 91776, USA",83,54,40
san jacinto,california,33.7839084,-116.958635,"123 E Main St, San Jacinto, CA 92583, USA",70,59,
san jose,california,37.3382082,-121.8863286,"195 E Santa Clara St, San Jose, CA 95112, USA",97,93,68
san juan capistrano,california,33.5019027,-117.6627655,"26801 Ortega Hwy, San Juan Capistrano, CA 92675, USA",88,77,
san leandro,california,37.7249296,-122.1560768,"1221 E 14th St, San Leandro, CA 94577, USA",97,71,61
san luis obispo,california,35.2827524,-120.6596156,"San Luis Obispo, San Luis Obispo, CA 93401, USA",97,93,38
san marcos,california,33.1433723,-117.1661449,"236 W Mission Rd, San Marcos, CA 92069, USA",75,59,
san marino,california,34.121397,-118.1064585,"2180 Huntington Dr, San Marino, CA 91108, USA",61,50,
san mateo,california,37.5629917,-122.3255254,"2 E 3rd Ave, San Mateo, CA 94401, USA",99,77,45
san pablo,california,37.9621457,-122.3455263,"2100 23rd St, San Pablo, CA 94806, USA",90,52,48
san rafael,california,37.9735346,-122.5310874,"1314 4th St, San Rafael, CA 94901, USA",96,68,55
san ramon,california,37.7799273,-121.9780153,"San Ramon Valley Blvd Between Fostoria Way, San Ramon, CA 94583, USA",65,61,
sand city,california,36.6171819,-121.8482855,"740 Tioga Ave, Seaside, CA 93955, USA",68,76,
sanger,california,36.708006,-119.5559652,"540 Academy Ave, Sanger, CA 93657, USA",80,62,
santa ana,california,33.7454725,-117.867653,"1st-Main, Santa Ana, CA 92701, USA",98,65,48
santa barbara,california,34.4208305,-119.6981901,"100 E De La Guerra St, Santa Barbara, CA 93101, USA",95,76,55
santa clara,california,37.3541079,-121.9552356,"1675 Lincoln St, Santa Clara, CA 95050, USA",76,77,47
santa clarita,california,34.3916641,-118.542586,"25128 Newhall Ave, Santa Clarita, CA 91321, USA",27,75,
santa cruz,california,36.9741171,-122.0307963,"598 Chestnut St, Santa Cruz, CA 95060, USA",94,99,42
santa fe springs,california,33.9472359,-118.0853451,"11627 Telegraph Rd, Santa Fe Springs, CA 90670, USA",70,50,
santa maria,california,34.9530337,-120.4357191,"2220 S Broadway, Santa Maria, CA 93454, USA",94,65,
santa monica,california,34.0194543,-118.4911912,"802 Santa Monica Blvd, Santa Monica, CA 90401, USA",92,96,76
santa paula,california,34.3541659,-119.0592705,"1033 E Main St, Santa Paula, CA 93060, USA",89,64,
santa rosa,california,38.440429,-122.7140548,"570 4th St, Santa Rosa, CA 95401, USA",96,77,48
santee,california,32.8383828,-116.9739167,"Mission Gorge Rd & Cottonwood Av, Santee, CA 92071, USA",72,49,
saratoga,california,37.2638324,-122.0230146,"10661 Douglass Ln, Saratoga, CA 95070, USA",33,51,
sausalito,california,37.8590937,-122.4852507,"324 Pine St, Sausalito, CA 94965, USA",86,46,
scotts valley,california,37.0510595,-122.0146841,"4859 Scotts Valley Dr, Scotts Valley, CA 95066, USA",57,68,
seal beach,california,33.7414085,-118.1047682,"148 Main St, Seal Beach, CA 90740, USA",85,81,34
seaside,california,36.6149217,-121.822098,"1817 Juarez St, Seaside, CA 93955, USA",17,34,
sebastopol,california,38.4021359,-122.8238806,"101 S Main St, Sebastopol, CA 95472, USA",92,77,
selma,california,36.5707838,-119.6120765,"2050 Arrants St, Selma, CA 93662, USA",83,55,
shafter,california,35.5005139,-119.2717761,"777 Central Valley Hwy, Shafter, CA 93263, USA",83,56,
sierra madre,california,34.1616729,-118.0528456,"17 Kersting Ct, Sierra Madre, CA 91024, USA",89,46,
signal hill,california,33.8044614,-118.1678456,"Willow & Cherry NW, Signal Hill, CA 90755, USA",79,47,
simi valley,california,34.2694474,-118.781482,"864 Pacific Ave, Simi Valley, CA 93065, USA",78,81,28
solana beach,california,32.991155,-117.2711481,"143j S Cedros Ave, Solana Beach, CA 92075, USA",85,56,
soledad,california,36.424687,-121.3263187,"900 Front St, Soledad, CA 93960, USA",82,39,
solvang,california,34.5958201,-120.1376481,"1714 Mission Dr, Solvang, CA 93463, USA",89,52,
sonoma,california,38.291859,-122.4580356,"501 Broadway, Sonoma, CA 95476, USA",93,64,
sonora,california,37.9829496,-120.3821724,"181 S Washington St, Sonora, CA 95370, USA",89,26,
south el monte,california,34.0519548,-118.0467339,"Rush / Central, South El Monte, CA 91733, USA",65,49,
south gate,california,33.954737,-118.2120161,"Firestone / State, South Gate, CA 90280, USA",82,55,
south lake tahoe,california,38.939926,-119.9771868,"3053 Lake Tahoe Blvd, South Lake Tahoe, CA 96150, USA",63,93,
south pasadena,california,34.1161196,-118.1503488,"Fair Oaks / Mission, South Pasadena, CA 91030, USA",95,70,49
south san francisco,california,37.654656,-122.4077498,"296 Airport Blvd, South San Francisco, CA 94080, USA",94,62,
st. helena,california,38.5052429,-122.4703868,"1407 CA-128, St Helena, CA 94574, USA",83,91,
stallion springs,california,35.0888553,-118.6425912,"28860 Shannon Ct, Tehachapi, CA 93561, USA",0,19,
stanton,california,33.8028875,-117.9931203,"Beach-Katella, Stanton, CA 90680, USA",80,54,36
stockton,california,37.9577016,-121.2907796,"510 N El Dorado St, Stockton, CA 95202, USA",90,66,47
suisun city,california,38.2382474,-122.040244,"700 Main St, Suisun City, CA 94585, USA",75,56,
sunnyvale,california,37.36883,-122.0363496,"390 W El Camino Real, Sunnyvale, CA 94087, USA",93,87,45
susanville,california,40.4162842,-120.6530063,"39 Foss St, Susanville, CA 96130, USA",80,55,
sutter creek,california,38.3929675,-120.8024357,"36 Main St, Sutter Creek, CA 95685, USA",51,22,
taft,california,35.1424671,-119.4565078,"330 4th St, Taft, CA 93268, USA",73,59,
tehachapi,california,35.1321877,-118.4489739,"160 W Tehachapi Blvd, Tehachapi, CA 93561, USA",78,57,
temecula,california,33.4936391,-117.1483648,"41990 Main St, Temecula, CA 92590, USA",78,52,19
temple city,california,34.1072305,-118.0578456,"9701 Las Tunas Dr, Temple City, CA 91780, USA",82,58,44
thousand oaks,california,34.1705609,-118.8375937,"2945 Thousand Oaks Blvd, Thousand Oaks, CA 91362, USA",88,53,29
tiburon town,california,37.8735377,-122.4566392,"40 Main St, Belvedere Tiburon, CA 94920, USA",67,67,
torrance,california,33.8358492,-118.3406288,"3221 Torrance Blvd, Torrance, CA 90503, USA",69,56,41
tracy,california,37.7396513,-121.4252227,"22 Eleventh St, Tracy, CA 95376, USA",90,55,29
truckee town,california,39.327962,-120.1832533,"10027 Donner Pass Rd, Truckee, CA 96161, USA",61,77,
tulare,california,36.2077288,-119.3473379,"115 E Tulare Ave, Tulare, CA 93274, USA",87,75,
tulelake,california,41.9559884,-121.4774916,"338 C St, Tulelake, CA 96134, USA",35,45,
turlock,california,37.4946568,-120.8465941,"111 N Golden State Blvd, Turlock, CA 95380, USA",91,57,26
tustin,california,33.7420005,-117.8236391,"100 W Main St, Tustin, CA 92780, USA",88,65,46
twentynine palms,california,34.1355582,-116.0541689,"73709 Twentynine Palms Highway, Twentynine Palms, CA 92277, USA",54,47,
ukiah,california,39.1501709,-123.2077831,"101 N State St, Ukiah, CA 95482, USA",94,67,
union city,california,37.5933918,-122.0438298,"Alvarado-Niles Rd & Dowe Av, Union City, CA 94587, USA",51,48,
upland,california,34.09751,-117.6483876,"308B N 2nd Ave, Upland, CA 91786, USA",86,75,35
vacaville,california,38.3565773,-121.9877444,"300-328 Elizabeth St, Vacaville, CA 95688, USA",82,56,23
vallejo,california,38.1040864,-122.2566367,"901 Marin St, Vallejo, CA 94590, USA",92,58,43
vernon,california,34.003903,-118.230073,"Pacific / Santa Fe, Vernon, CA 90058, USA",43,39,
victorville,california,34.5362184,-117.2927641,"15655 7th St, Victorville, CA 92395, USA",50,45,28
villa park,california,33.81400620000001,-117.8220723,"17583 Santiago Blvd, Villa Park, CA 92861, USA",64,60,
visalia,california,36.3302284,-119.2920585,"22223 Carson Ave, Visalia, CA 93291, USA",96,62,
vista,california,33.2000368,-117.2425355,"223 S Santa Fe Ave, Vista, CA 92083, USA",64,48,51
walnut,california,34.0202894,-117.8653386,"20149 La Puente Rd, Walnut, CA 91789, USA",69,63,22
walnut creek,california,37.9100783,-122.0651819,"2225 N Main St, Walnut Creek, CA 94596, USA",77,63,48
waterford,california,37.6413202,-120.7604834,"12705 Bentley St, Waterford, CA 95386, USA",78,57,
watsonville,california,36.910231,-121.7568946,"5 E Beach St, Watsonville, CA 95076, USA",94,86,37
weed,california,41.42264979999999,-122.3861269,"228 Grove St, Weed, CA 96094, USA",58,22,
west covina,california,34.0686208,-117.9389526,"705 S Sunset Ave, West Covina, CA 91790, USA",75,50,
west hollywood,california,34.0900091,-118.3617443,"1049 N Fairfax Ave, West Hollywood, CA 90046, USA",97,67,59
west sacramento,california,38.5804609,-121.530234,"1640 Lincoln Hwy, West Sacramento, CA 95691, USA",77,72,29
westlake village,california,34.1466467,-118.8073729,"1 WellPoint Way, Thousand Oaks, CA 91362, USA",35,49,
westminster,california,33.7591757,-117.9897058,"14011 Beach Blvd, Westminster, CA 92683, USA",83,52,
westmorland,california,33.0372674,-115.6213817,"194 N Center St, Westmorland, CA 92281, USA",56,42,
wheatland,california,39.0098946,-121.4230133,"503 Main St, Wheatland, CA 95692, USA",55,59,
whittier,california,33.9791793,-118.032844,"13363-13399 Philadelphia St, Whittier, CA 90601, USA",93,57,
wildomar,california,33.5989126,-117.2800372,"21436 Grand Ave, Wildomar, CA 92595, USA",21,16,
williams,california,39.1546137,-122.1494187,"663 E St, Williams, CA 95987, USA",63,54,
willits,california,39.4096079,-123.3555656,"291 School St, Willits, CA 95490, USA",84,68,
willows,california,39.5243265,-122.1935931,"410 N Tehama St, Willows, CA 95988, USA",48,47,
windsor town,california,38.5471327,-122.8163802,"378 Windsor River Rd, Windsor, CA 95492, USA",83,61,
winters,california,38.5249065,-121.9708017,"2 Grant Ave, Winters, CA 95694, USA",83,69,
woodlake,california,36.4135605,-119.0987176,"384 Danielle Way, Woodlake, CA 93286, USA",75,50,
woodland,california,38.67851570000001,-121.7732971,"300 1st St, Woodland, CA 95695, USA",90,89,29
yorba linda,california,33.88850350000001,-117.8132571,"18992 Yorba Linda Blvd, Yorba Linda, CA 92886, USA",84,73,
yountville,california,38.40157809999999,-122.3608105,"6509 Washington St, Yountville, CA 94599, USA",67,68,
yreka,california,41.7354186,-122.6344709,"414 N Main St, Yreka, CA 96097, USA",64,49,
yuba city,california,39.1404477,-121.6169108,"444 Colusa Ave, Yuba City, CA 95991, USA",91,57,
yucaipa,california,34.033625,-117.0430865,"34909 Yucaipa Blvd, Yucaipa, CA 92399, USA",72,43,
yucca valley town,california,34.1141743,-116.432235,"56329 Stardust Trail, Yucca Valley, CA 92284, USA",26,35,
alamosa,colorado,37.4694491,-105.8700214,"10430 US-160, Alamosa, CO 81101, USA",76,64,
arvada,colorado,39.8027644,-105.0874842,"8101 Ralston Rd, Arvada, CO 80002, USA",70,77,49
aspen,colorado,39.1910983,-106.8175387,"860 S los angeles St, Aspen, CO 81611, USA",85,95,
ault town,colorado,40.5824804,-104.7319112,"225 1st St, Eaton, CO 80615, USA",35,39,
aurora,colorado,39.7294319,-104.8319195,"899 Vaughn St, Aurora, CO 80011, USA",31,57,48
avon town,colorado,39.6330673,-106.5222196,"015 Hurd Ln, Avon, CO 81620, USA",66,48,
avondale,colorado,38.2375025,-104.3510792,"234 US-50, Avondale, CO 81022, USA",18,30,
basalt town,colorado,39.36887309999999,-107.0328241,"201 Midland Ave, Basalt, CO 81621, USA",53,44,
bayfield town,colorado,37.2255593,-107.5981123,"546 Co Rd 521, Bayfield, CO 81122, USA",29,28,
black hawk,colorado,39.7969322,-105.4938853,"Black Hawk, CO, USA",14,4,
blue river town,colorado,39.4297098,-106.0439074,"6306 CO-9, Breckenridge, CO 80424, USA",0,29,
boulder,colorado,40.0149856,-105.2705456,"1515 19th St, Boulder, CO 80302, USA",87,100,68
bow mar town,colorado,39.628321,-105.0499841,"4901 Bow Mar Dr, Littleton, CO 80123, USA",6,28,
breckenridge town,colorado,39.4816537,-106.0383518,"204 S Pine St, Breckenridge, CO 80424, USA",54,34,
brighton,colorado,39.9852617,-104.8205283,"244 Bush St, Brighton, CO 80601, USA",81,56,25
broomfield,colorado,39.9205411,-105.0866504,"300 Nickel St, Broomfield, CO 80020, USA",79,62,33
brush,colorado,40.2588686,-103.6238367,"500 Clayton St, Brush, CO 80723, USA",56,45,
buena vista town,colorado,38.8422178,-106.1311288,"210 E Main St, Buena Vista, CO 81211, USA",66,64,
burlington,colorado,39.3061082,-102.2693563,"501 15th St, Burlington, CO 80807, USA",61,46,
calhan town,colorado,39.0355459,-104.297186,"533 Boulder St, Calhan, CO 80808, USA",40,40,
campo town,colorado,37.105019,-102.5796377,"405 S Main St, Campo, CO 81029, USA",17,29,
carbondale town,colorado,39.4022054,-107.2111628,"100-198 N 4th St, Carbondale, CO 81623, USA",83,92,
castle rock town,colorado,39.3722121,-104.8560902,"222 Cantril St, Castle Rock, CO 80104, USA",70,77,
centennial,colorado,39.5807452,-104.8771726,"9445 E Dry Creek Rd, Centennial, CO 80112, USA",34,33,54
center town,colorado,37.7530563,-106.1086379,"345 S Worth St, Center, CO 81125, USA",21,44,
cherry hills village,colorado,39.6416544,-104.9594253,"4155 CO-177, Cherry Hills Village, CO 80113, USA",12,45,
colorado springs,colorado,38.8338816,-104.8213634,"200 E Pikes Peak Ave, Colorado Springs, CO 80903, USA",74,84,50
columbine,colorado,39.5877657,-105.0694295,"7096 S Newland St, Littleton, CO 80128, USA",41,51,19
columbine valley town,colorado,39.6010988,-105.032206,"16 Niblick Ln, Littleton, CO 80123, USA",14,42,
commerce city,colorado,39.8083196,-104.9338675,"6112-6290 Clermont St, Commerce City, CO 80022, USA",34,48,41
cortez,colorado,37.3488827,-108.5859265,"28 W Main St, Cortez, CO 81321, USA",67,55,
craig,colorado,40.5152491,-107.5464541,"552 Russell St, Craig, CO 81625, USA",75,54,
crested butte town,colorado,38.8697146,-106.9878231,"130 Elk Ave, Crested Butte, CO 81224, USA",66,90,
cripple creek,colorado,38.7466555,-105.1783149,"200 Bennett Ave, Cripple Creek, CO 80813, USA",39,24,
dacono,colorado,40.0847062,-104.9394216,"208 Fifth St, Dacono, CO 80514, USA",33,54,
del norte town,colorado,37.6788919,-106.3533683,"690 Grand Ave, Del Norte, CO 81132, USA",57,59,
