city,state,latitude,longitude,reverse_address
albertville,alabama,34.2675937,-86.20886689999999,"124 S Broad St, Albertville, AL 35950, USA"
alexander city,alabama,32.944012,-85.9538532,"63 Court Square, Alexander City, AL 35010, USA"
anniston,alabama,33.6598257,-85.8316318,"1200 Gurnee Ave, Anniston, AL 36201, USA"
bessemer,alabama,33.4017766,-86.954437,"1800 3rd Ave N, Bessemer, AL 35020, USA"
birmingham,alabama,33.5185892,-86.8103567,"595 19th St N, Birmingham, AL 35203, USA"
daphne,alabama,30.6035255,-87.9036047,"706 Belrose Ave, Daphne, AL 36526, USA"
fairhope,alabama,30.5229719,-87.9033261,"22765, Fairhope, AL 36532, United States"
helena,alabama,33.296224,-86.8436004,"4093 Helena Rd, Helena, AL 35080, USA"
madison,alabama,34.6992579,-86.74833180000002,"318 Church St, Madison, AL 35758, USA"
mobile,alabama,30.6953657,-88.0398912,"1 St Louis St, Mobile, AL 36602, USA"
montgomery,alabama,32.3792233,-86.3077368,"103 N Perry St, Montgomery, AL 36104, USA"
opelika,alabama,32.6454116,-85.3782795,"1409 S 9th St, Opelika, AL 36801, USA"
pelham,alabama,33.2856687,-86.8099885,"3183 Pelham Pkwy, Pelham, AL 35124, USA"
phenix city,alabama,32.4709761,-85.0007653,"511 13th St, Phenix City, AL 36867, USA"
selma,alabama,32.4073589,-87.02110069999999,"803-971 Alabama Ave, Selma, AL 36701, USA"
sylacauga,alabama,33.1731716,-86.2516406,"21-99 W 4th St, Sylacauga, AL 35150, USA"
talladega,alabama,33.4359416,-86.1058048,"111 N Spring St, Talladega, AL 35160, USA"
troy,alabama,31.8087678,-85.969951,"221 E Academy St, Troy, AL 36081, USA"
trussville,alabama,33.6198251,-86.60887559999999,"106 N Chalkville Rd, Trussville, AL 35173, USA"
tuscaloosa,alabama,33.2098407,-87.56917349999999,"2436 University Blvd, Tuscaloosa, AL 35401, USA"
homer,alaska,59.64100000000001,-151.546,"135 Sterling Hwy, Homer, AK 99603, USA"
apache junction,arizona,33.4150485,-111.5495777,"183 Apache Trail, Apache Junction, AZ 85120, USA"
avondale,arizona,33.4355977,-112.3496021,"14 E Western Ave, Avondale, AZ 85323, USA"
camp verde town,arizona,34.5636358,-111.8543178,"396 S Main St, Camp Verde, AZ 86322, USA"
chandler,arizona,33.3061605,-111.8412502,"7 E Chandler Blvd, Chandler, AZ 85225, USA"
chino valley town,arizona,34.7575227,-112.4537809,"845 AZ-89, Chino Valley, AZ 86323, USA"
clarkdale town,arizona,34.7711319,-112.0579367,"909 Main St, Clarkdale, AZ 86324, USA"
cottonwood,arizona,34.7391876,-112.0098791,"14 S Main St, Cottonwood, AZ 86326, USA"
eagar town,arizona,34.1111581,-109.291475,"16 W Central Ave, Eagar, AZ 85925, USA"
el mirage,arizona,33.6130942,-112.3246042,"14217 N El Mirage Rd, El Mirage, AZ 85335, USA"
flagstaff,arizona,35.1982836,-111.651302,"122 US-180, Flagstaff, AZ 86001, USA"
florence town,arizona,33.0314508,-111.3873431,"28677 Center St, Florence, AZ 85132, USA"
fredonia town,arizona,36.945542,-112.5265889,"66 Pratt St, Fredonia, AZ 86022, USA"
gilbert town,arizona,33.3528264,-111.789027,"133 N Gilbert Rd, Gilbert, AZ 85234, USA"
glendale,arizona,33.5386523,-112.1859866,"5900 W Glendale Ave, Glendale, AZ 85301, USA"
goodyear,arizona,33.4353394,-112.3576567,"101 W Western Ave, Avondale, AZ 85323, USA"
huachuca city town,arizona,31.6278703,-110.3339678,"302 1st St, Huachuca City, AZ 85616, USA"
kearny town,arizona,33.0570085,-110.9106656,"401 Danbury Rd, Kearny, AZ 85137, USA"
kingman,arizona,35.189443,-114.0530065,"111-199 N 4th St, Kingman, AZ 86401, USA"
lake havasu city,arizona,34.483901,-114.3224548,"101 Mescal Loop, Lake Havasu City, AZ 86403, USA"
marana town,arizona,32.436381,-111.2224422,"12601 N Whitney Ln, Marana, AZ 85653, USA"
mesa,arizona,33.4151843,-111.8314724,"4 E Main St, Mesa, AZ 85201, USA"
paradise valley town,arizona,33.5311541,-111.9426452,"6501-6699 N Invergordon Rd, Paradise Valley, AZ 85253, USA"
patagonia town,arizona,31.5395378,-110.7561963,"384 Naugle Ave, Patagonia, AZ 85624, USA"
payson town,arizona,34.2308684,-111.3251355,"100 W Main St, Payson, AZ 85541, USA"
peoria,arizona,33.5805955,-112.2373779,"83rd Av & Washington St, Peoria, AZ 85345, USA"
phoenix,arizona,33.4483771,-112.0740373,"22 W Washington St, Phoenix, AZ 85004, USA"
pima town,arizona,32.8961755,-109.8275815,"2 N Main St, Pima, AZ 85543, USA"
pimaco two,arizona,31.95056,-110.45194,"16711 S Whetstone Ave, Benson, AZ 85602, USA"
pine,arizona,34.3844739,-111.4551407,"6119 AZ-260, Pine, AZ 85544, USA"
pinetop-lakeside town,arizona,34.1425438,-109.9603843,"503 W Summer Haven Ln, Lakeside, AZ 85929, USA"
prescott,arizona,34.5400242,-112.4685025,"141 S Cortez St, Prescott, AZ 86303, USA"
prescott valley town,arizona,34.6100243,-112.315721,"8500 Spouse Dr, Prescott Valley, AZ 86314, USA"
quartzsite town,arizona,33.6639137,-114.2299486,"775 W Main St, Quartzsite, AZ 85346, USA"
safford,arizona,32.8339546,-109.70758,"515 S 1st Ave, Safford, AZ 85546, USA"
sahuarita town,arizona,31.9575818,-110.955646,"1130 E Sahuarita Rd, Sahuarita, AZ 85629, USA"
san luis,arizona,32.4869996,-114.7821796,"503 Main St, San Luis, AZ 85349, USA"
scottsdale,arizona,33.4941704,-111.9260519,"4017 N Scottsdale Rd, Scottsdale, AZ 85251, USA"
sedona,arizona,34.8697395,-111.7609896,"247 AZ-89A, Sedona, AZ 86336, USA"
show low,arizona,34.2542084,-110.0298327,"1152 US-60, Show Low, AZ 85901, USA"
sierra vista,arizona,31.5455001,-110.2772856,"2031 E Tiffany Pl, Sierra Vista, AZ 85635, USA"
springerville town,arizona,34.1333799,-109.2859196,"5 S Mountain Ave, Springerville, AZ 85938, USA"
surprise,arizona,33.6292337,-112.3679279,"16000 N Civic Center Plaza, Surprise, AZ 85374, USA"
tempe,arizona,33.4255104,-111.9400054,"501 S Mill Ave, Tempe, AZ 85281, USA"
thatcher town,arizona,32.8492323,-109.7592479,"3544 W Main St, Thatcher, AZ 85552, USA"
tolleson,arizona,33.4500425,-112.259321,"9257 W Van Buren St, Tolleson, AZ 85353, USA"
tombstone,arizona,31.7128683,-110.0675764,"330 E Allen St, Tombstone, AZ 85638, USA"
tucson,arizona,32.2226066,-110.9747108,"255 W Alameda St, Tucson, AZ 85701, USA"
wellton hills,arizona,32.624404,-114.1394764,"21182 Cleator Ave, Wellton, AZ 85356, USA"
wellton town,arizona,32.6728256,-114.1468821,"28673 Los Angeles Ave, Wellton, AZ 85356, USA"
wickenburg town,arizona,33.9697664,-112.7301882,"131 E Apache St, Wickenburg, AZ 85390, USA"
willcox,arizona,32.2528519,-109.8320124,"125 N Haskell Ave, Willcox, AZ 85643, USA"
williams,arizona,35.24945659999999,-112.1910031,"417 W Historic Rte 66, Williams, AZ 86046, USA"
yuma,arizona,32.6926512,-114.6276916,"647-699 W 19th St, Yuma, AZ 85364, USA"
bella vista town,arkansas,36.481464,-94.2732642,"1 Hatcher Dr, Bella Vista, AR 72715, USA"
bentonville,arkansas,36.3728538,-94.2088172,"100 S Main St, Bentonville, AR 72712, USA"
blytheville,arkansas,35.9272953,-89.9189753,"646 E Main St, Blytheville, AR 72315, USA"
el dorado,arkansas,33.20763,-92.6662674,"469599 Barton St, El Dorado, AR 71730, USA"
hot springs,arkansas,34.5037004,-93.0551795,"Central Ave & W Grand St, Hot Springs, AR 71901, USA"
jacksonville,arkansas,34.8662005,-92.1101458,"102 veterans Cir, Jacksonville, AR 72076, USA"
little rock,arkansas,34.7464809,-92.28959479999999,"112-172 State Capitol, Little Rock, AR 72201, USA"
maumelle,arkansas,34.8667565,-92.4043219,"1100 Edgewood Dr, Maumelle, AR 72113, USA"
mountain home,arkansas,36.3353949,-92.381346,"409 E 6th St, Mountain Home, AR 72653, USA"
north little rock,arkansas,34.769536,-92.2670941,"1608 Main St, North Little Rock, AR 72114, USA"
pine bluff,arkansas,34.2284312,-92.00319549999999,"129 S Main St, Pine Bluff, AR 71601, USA"
springdale,arkansas,36.18674420000001,-94.1288141,"208-298 E Johnson Ave, Springdale, AR 72764, USA"
texarkana,arkansas,33.4417915,-94.0376881,"1924 County Ave, Texarkana, AR 71854, USA"
west memphis,arkansas,35.1464797,-90.1845388,"101 E Broadway Blvd, West Memphis, AR 72301, USA"
adelanto,california,34.5827699,-117.409215,"11715 Lee Ave, Adelanto, CA 92301, USA"
agoura hills,california,34.1533395,-118.7616764,"29170 Quail Run Dr, Agoura Hills, CA 91301, USA"
alameda,california,37.7652065,-122.2416355,"Santa Clara Av:Park St, Alameda, CA 94501, USA"
albany,california,37.88687,-122.2977475,"999 San Pablo Ave, Albany, CA 94706, USA"
alhambra,california,34.095287,-118.1270146,"Main / Garfield, Alhambra, CA 91801, USA"
aliso viejo,california,33.5684605,-117.7262981,"36 Journey, Aliso Viejo, CA 92656, USA"
alturas,california,41.4871146,-120.5424555,"346 N Main St, Alturas, CA 96101, USA"
american canyon,california,38.1749178,-122.2608044,"100 Joan Dr, American Canyon, CA 94503, USA"
anaheim,california,33.8365932,-117.9143012,"255 Anaheim Blvd, Anaheim, CA 92805, USA"
anderson,california,40.448208,-122.2977815,"2765-2799 CA-273, Anderson, CA 96007, USA"
angels,california,38.0677832,-120.5385299,"1349 S Main St, Angels Camp, CA 95222, USA"
antioch,california,38.0049214,-121.805789,"1715 E 18th St, Antioch, CA 94509, USA"
apple valley town,california,34.5008311,-117.1858759,"21910 Outer Hwy 18 N, Apple Valley, CA 92307, USA"
arcadia,california,34.1397292,-118.0353449,"100 W Huntington Dr, Arcadia, CA 91007, USA"
arcata,california,40.8665166,-124.0828396,"700 D St, Arcata, CA 95521, USA"
arroyo grande,california,35.1185868,-120.5907252,"113 S Rena St, Arroyo Grande, CA 93420, USA"
artesia,california,33.8658484,-118.0831212,"18163 Pioneer Blvd, Artesia, CA 90701, USA"
arvin,california,35.2017986,-118.833105,"5701 Franklin St, Arvin, CA 93203, USA"
atascadero,california,35.4894169,-120.6707255,"5940 El Camino Real, Atascadero, CA 93422, USA"
atherton town,california,37.4613272,-122.197743,"3295 El Camino Real, Atherton, CA 94027, United States"
atwater,california,37.3477174,-120.609084,"1298 Cedar Ave, Atwater, CA 95301, USA"
auburn,california,38.8965654,-121.0768901,"101 Maple St, Auburn, CA 95603, USA"
avalon,california,33.3428193,-118.3282279,"301 Beacon St, Avalon, CA 90704, USA"
avenal,california,36.0041223,-120.1290272,"700 Skyline Blvd, Avenal, CA 93204, USA"
azusa,california,34.1336186,-117.9075627,"88 Auspicious Dr, Azusa, CA 91702, USA"
bakersfield,california,35.3732921,-119.0187125,"1401-1499 Truxtun Ave, Bakersfield, CA 93301, USA"
baldwin park,california,34.0852868,-117.9608978,"3972 Maine Ave, Baldwin Park, CA 91706, USA"
banning,california,33.9255713,-116.8764103,"6 N San Gorgonio Ave, Banning, CA 92220, USA"
barstow,california,34.8957957,-117.0172826,"315 Melissa Ave, Barstow, CA 92311, USA"
beaumont,california,33.9294606,-116.977248,"380 E 6th St, Beaumont, CA 92223, USA"
bell gardens,california,33.9652918,-118.1514588,"6345 Florence Ave, Bell Gardens, CA 90201, USA"
bellflower,california,33.8816818,-118.1170117,"17053 Bellflower Bike Trail, Bellflower, CA 90706, USA"
belmont,california,37.5202145,-122.2758008,"1025 Belmont Station underpass, Belmont, CA 94002, USA"
belvedere,california,37.8727044,-122.4644171,"105 Acacia Ave, Belvedere Tiburon, CA 94920, USA"
benicia,california,38.049365,-122.1585777,"632 1st St, Benicia, CA 94510, USA"
berkeley,california,37.8715926,-122.272747,"University Ave. at Martin Luther King Jr. Way, Berkeley, CA 94704, USA"
beverly hills,california,34.0736204,-118.4003563,"486-498 N Rexford Dr, Beverly Hills, CA 90210, USA"
big bear city,california,34.2611183,-116.84503,"112 CA-38, Big Bear, CA 92314, USA"
big bear lake,california,34.2438963,-116.9114215,"40824 Big Bear Blvd, Big Bear Lake, CA 92315, USA"
biggs,california,39.4123876,-121.7127513,"2997 8th St, Biggs, CA 95917, USA"
bishop,california,37.3614238,-118.3996636,"487 W Line St, Bishop, CA 93514, USA"
blythe,california,33.6177725,-114.5882607,"Chanslorway & 7th St., Blythe, CA 92225, USA"
brawley,california,32.9786566,-115.530267,"111 N 8th St, Brawley, CA 92227, USA"
brea,california,33.916475,-117.9002918,"Brea-Imperial, Brea, CA 92821, USA"
brentwood,california,37.931868,-121.6957863,"Brentwood Blvd & Oak St, Brentwood, CA 94513, USA"
brisbane,california,37.6807661,-122.3999715,"500 San Bruno Ave, Brisbane, CA 94005, USA"
buellton,california,34.613597,-120.1926505,"51 E Hwy 246, Buellton, CA 93427, USA"
buena park,california,33.8674044,-117.9981387,"Beach-Auto Center Drive, Buena Park, CA 90621, USA"
burbank,california,34.1808392,-118.3089661,"Burbank airport, Burbank, CA 91502, USA"
burlingame,california,37.5778696,-122.34809,"1401 Burlingame Ave, Burlingame, CA 94010, USA"
calabasas,california,34.1367208,-118.6614809,"3715 Cll Jazmin, Calabasas, CA 91302, USA"
calexico,california,32.6789476,-115.4988834,"1011 S Imperial Ave, Calexico, CA 92231, USA"
california city,california,35.125801,-117.9859038,"7987 California City Blvd, California City, CA 93505, USA"
calimesa,california,34.0039039,-117.0619755,"996 County Line Rd, Calimesa, CA 92320, USA"
calistoga,california,38.5787965,-122.5797054,"PO Box 302, Calistoga, CA 94515, United States"
camarillo,california,34.2163937,-119.0376023,"2402 Ventura Blvd, Camarillo, CA 93010, USA"
campbell,california,37.2871651,-121.9499568,"486 E Campbell Ave, Campbell, CA 95008, USA"
capitola,california,36.9752283,-121.953293,"501 Capitola Ave, Capitola, CA 95010, USA"
carlsbad,california,33.1580933,-117.3505939,"3016 Carlsbad Blvd, Carlsbad, CA 92008, USA"
carmel valley village,california,36.4799024,-121.7327931,"3 Village Dr, Carmel Valley, CA 93924, USA"
carmel-by-the-sea,california,36.5552386,-121.9232879,"800 Ocean Ave, Carmel-By-The-Sea, CA 93923, USA"
carpinteria,california,34.39888380000001,-119.5184564,"991 Linden Ave, Carpinteria, CA 93013, USA"
carson,california,33.8316745,-118.281693,"Carson St at Moneta Av, Carson, CA 90745, USA"
cathedral city,california,33.7805388,-116.4668036,"68895 Perez Road Units 1-4, Cathedral City, CA 92234, United States"
ceres,california,37.5949316,-120.9577098,"2029 E Whitmore Ave, Ceres, CA 95307, USA"
cerritos,california,33.8583483,-118.0647871,"12506 South St, Cerritos, CA 90703, USA"
chico,california,39.7284944,-121.8374777,"3199 plummer drive, Chico, CA 95928, USA"
chino,california,34.0122346,-117.688944,"13271 Central Ave, Chino, CA 91710, USA"
chino hills,california,33.9898188,-117.7325848,"3316 Eucalyptus Ave, Chino Hills, CA 91709, USA"
chowchilla,california,37.1229997,-120.2601754,"200 Robertson Blvd, Chowchilla, CA 93610, USA"
chula vista,california,32.6400541,-117.0841955,"302 4th Ave, Chula Vista, CA 91910, USA"
citrus heights,california,38.7071247,-121.2810611,"7754 Mariposa Ave, Citrus Heights, CA 95610, USA"
claremont,california,34.0966764,-117.7197785,"315 N Indian Hill Blvd, Claremont, CA 91711, USA"
clayton,california,37.9410341,-121.9357925,"1030 Diablo St, Clayton, CA 94517, USA"
clearlake,california,38.9582307,-122.6263728,"15427 Duncan Ave, Clearlake, CA 95422, USA"
cloverdale,california,38.8054624,-123.0172227,"108 N Cloverdale Blvd, Cloverdale, CA 95425, USA"
clovis,california,36.8252277,-119.7029194,"508 4th St, Clovis, CA 93612, USA"
coachella,california,33.6803003,-116.173894,"85900 Grapefruit Blvd, Coachella, CA 92236, USA"
coalinga,california,36.139678,-120.3601496,"100-198 Coalinga Plaza, Coalinga, CA 93210, USA"
colton,california,34.0739016,-117.3136547,"816 Colton Ave, Colton, CA 92324, USA"
colusa,california,39.2143343,-122.0094175,"Serving Your Area, Colusa, CA 95932, United States"
compton,california,33.8958492,-118.2200712,"298 E Compton Blvd, Compton, CA 90221, USA"
concord,california,37.9779776,-122.0310733,"2349 Willow Pass Rd, Concord, CA 94520, USA"
corcoran,california,36.098007,-119.5604015,"1025 Whitley Ave, Corcoran, CA 93212, USA"
corning,california,39.9276572,-122.1791556,"1081 Solano St, Corning, CA 96021, USA"
corona,california,33.8752935,-117.5664384,"114 E 6th St, Corona, CA 92879, USA"
coronado,california,32.6858853,-117.1830891,"827 Tolita Ave, Coronado, CA 92118, USA"
costa mesa,california,33.6412156,-117.9188221,"1209 Harbor Blvd, Costa Mesa, CA 92627, USA"
cotati,california,38.3293416,-122.7096666,"7885A Old Redwood Hwy, Cotati, CA 94931, USA"
covina,california,34.0900091,-117.8903397,"413 N Citrus Ave, Covina, CA 91723, USA"
crescent city,california,41.7557501,-124.2025913,"701 9th St, Crescent City, CA 95531, USA"
culver city,california,34.0211224,-118.3964665,"9900 Culver Blvd, Culver City, CA 90232, USA"
cupertino,california,37.3229978,-122.0321823,"20451 Stevens Creek Blvd, Cupertino, CA 95014, USA"
cypress,california,33.8169366,-118.0368507,"Ball-Walker, Cypress, CA 90630, USA"
daly city,california,37.6879241,-122.4702079,"95 Washington St, Daly City, CA 94014, USA"
dana point,california,33.4672256,-117.6981014,"34181 Pacific Coast Hwy, Dana Point, CA 92629, USA"
danville town,california,37.8215929,-121.9999606,"381-395 Hartz Ave, Danville, CA 94526, USA"
davis,california,38.5449065,-121.7405167,"615 3rd St, Davis, CA 95616, USA"
del mar,california,32.9594891,-117.2653146,"1500 Camino Del Mar, Del Mar, CA 92014, USA"
del rey oaks,california,36.5932934,-121.8349515,"Via Verde / Canyon Del Rey, Del Rey Oaks, CA 93940, USA"
delano,california,35.7688425,-119.2470536,"998 S High St, Delano, CA 93215, USA"
desert hot springs,california,33.961124,-116.5016784,"12021 Palm Dr, Desert Hot Springs, CA 92240, USA"
diamond bar,california,34.0286226,-117.8103367,"504 N Diamond Bar Blvd, Diamond Bar, CA 91765, USA"
dinuba,california,36.5432837,-119.3870656,"401 E Tulare St, Dinuba, CA 93618, USA"
dixon,california,38.4454641,-121.8232958,"131 W A St, Dixon, CA 95620, USA"
dos palos,california,36.9860582,-120.6265722,"1427 Center Ave, Dos Palos, CA 93620, USA"
downey,california,33.9401088,-118.1331593,"Firestone / Downey, Downey, CA 90241, USA"
duarte,california,34.1394513,-117.9772873,"Huntington Dr and Buena Vista St E, Duarte, CA 91010, USA"
dublin,california,37.7021521,-121.9357918,"7007 San Ramon Rd, Dublin, CA 94568, USA"
dunsmuir,california,41.2082089,-122.2719529,"5957 Sacramento Ave, Dunsmuir, CA 96025, USA"
el cajon,california,32.7947731,-116.9625269,"124 S Magnolia Ave, El Cajon, CA 92020, USA"
el centro,california,32.792,-115.5630514,"950 W State St, El Centro, CA 92243, USA"
el cerrito,california,37.9161326,-122.310765,"3060 El Cerrito Plaza #331, El Cerrito, CA 94530, United States"
el monte,california,34.0686206,-118.0275667,"3400 Peck Rd, El Monte, CA 91731, USA"
el segundo,california,33.9191799,-118.4164652,"113 W Grand Ave, El Segundo, CA 90245, USA"
elk grove,california,38.4087993,-121.3716178,"8896 Elk Grove Blvd, Elk Grove, CA 95624, USA"
emeryville,california,37.831316,-122.2852473,"1301-1333 Park Ave, Emeryville, CA 94608, USA"
encinitas,california,33.0369867,-117.2919818,"1163 S Coast Hwy 101, Encinitas, CA 92024, USA"
escalon,california,37.7974273,-120.9966033,"1404 Main St, Escalon, CA 95320, USA"
escondido,california,33.1192068,-117.086421,"970 W Valley Parkway #1006, Escondido, CA 92025, United States"
etna,california,41.4568065,-122.8947551,"450 Pig Alley, Etna, CA 96027, USA"
eureka,california,40.8020712,-124.1636729,"503 H St, Eureka, CA 95501, USA"
exeter,california,36.2960613,-119.1420517,"201 N F St, Exeter, CA 93221, USA"
fairfax town,california,37.9871454,-122.5888686,"POB 74, Fairfax, CA 94930, United States"
fairfield,california,38.2491956,-122.0405151,"600 Texas St, Fairfield, CA 94533, USA"
farmersville,california,36.2977283,-119.2067767,"161 E Visalia Rd, Farmersville, CA 93223, USA"
ferndale,california,40.5762406,-124.2639441,"394 Main St, Fortuna, CA 95540, USA"
fillmore,california,34.3991639,-118.918154,"348 A St, Fillmore, CA 93015, USA"
firebaugh,california,36.8588376,-120.4560072,"1101 O St, Firebaugh, CA 93622, USA"
folsom,california,38.6779591,-121.1760583,"600-698 Sutter St, Folsom, CA 95630, USA"
fontana,california,34.0922335,-117.435048,"16932 Merrill Ave, Fontana, CA 92335, USA"
fort bragg,california,39.445723,-123.8052935,"125 E Laurel St, Fort Bragg, CA 95437, USA"
fort jones,california,41.6076387,-122.8403099,"29 Sterling St, Fort Jones, CA 96032, USA"
fortuna,california,40.5981867,-124.1572756,"926 Main St, Fortuna, CA 95540, USA"
fountain valley,california,33.7090212,-117.9544069,"Brookhurst-Slater, Fountain Valley, CA 92708, USA"
fowler,california,36.6305058,-119.6784697,"207 E Merced St, Fowler, CA 93625, USA"
fremont,california,37.5482697,-121.9885719,"4025 Mowry Ave, Fremont, CA 94538, USA"
fresno,california,36.7377981,-119.7871247,"2323 Mariposa St, Fresno, CA 93721, USA"
fullerton,california,33.8703645,-117.9242123,"162-100 El Camino Real, Fullerton, CA 92832, USA"
galt,california,38.2546373,-121.2999485,"814 A St, Galt, CA 95632, USA"
garden grove,california,33.7742692,-117.9379952,"12999 S Euclid St, Garden Grove, CA 92843, USA"
gardena,california,33.8883487,-118.3089624,"Redondo Beach Bl & Western Ave, Gardena, CA 90247, USA"
gilroy,california,37.0057816,-121.5682751,"7353 Monterey Rd, Gilroy, CA 95020, USA"
glendale,california,34.1425078,-118.255075,"100 E Colorado St, Glendale, CA 91204, USA"
glendora,california,34.1361187,-117.865339,"100 N Glendora Ave, Glendora, CA 91741, USA"
goleta,california,34.4358294,-119.8276389,"5842 Hollister Ave, Goleta, CA 93117, USA"
gonzales,california,36.5066295,-121.4443806,"338 Alta St, Gonzales, CA 93926, USA"
grand terrace,california,34.0339031,-117.3136544,"22483 Barton Rd, Grand Terrace, CA 92313, USA"
grass valley,california,39.2190608,-121.0610606,"125 E Main St, Grass Valley, CA 95945, USA"
greenfield,california,36.3207998,-121.2438138,"201 El Camino Real, Greenfield, CA 93927, USA"
gridley,california,39.3637773,-121.6935833,"460 Washington St, Gridley, CA 95948, USA"
grover beach,california,35.1216424,-120.6212821,"835 W Grand Ave, Grover Beach, CA 93433, USA"
guadalupe,california,34.971644,-120.5718363,"4589 10th St, Guadalupe, CA 93434, USA"
gustine,california,37.2577171,-120.9988154,"403 3rd Ave, Gustine, CA 95322, USA"
hanford,california,36.3274502,-119.6456844,"219 N Douty St, Hanford, CA 93230, USA"
hawaiian gardens,california,33.8314045,-118.0728424,"7065001033, Hawaiian Gardens, CA 90716, United States"
hawthorne,california,33.9164032,-118.3525748,"El Segundo Bl & Hawthorne Bl, Hawthorne, CA 90250, USA"
hayward,california,37.6688205,-122.0807964,"22898 CA-185, Hayward, CA 94541, USA"
healdsburg,california,38.6104658,-122.8691609,"122 Matheson St, Healdsburg, CA 95448, USA"
hemet,california,33.7475203,-116.9719684,"172-100 S Inez St, Hemet, CA 92543, USA"
hercules,california,38.0171441,-122.2885808,"2039 Railroad Ave, Hercules, CA 94547, USA"
hermosa beach,california,33.8622366,-118.3995194,"205 Pier Ste 103-B, Hermosa Beach, CA 90254, United States"
hesperia,california,34.4263886,-117.3008784,"9646 Hesperia Rd, Hesperia, CA 92345, USA"
highland,california,34.1283442,-117.2086513,"27265 Pacific St, Highland, CA 92346, USA"
hollister,california,36.8524545,-121.4016021,"401 San Benito St, Hollister, CA 95023, USA"
holtville,california,32.8111612,-115.3802643,"101 W 5th St, Holtville, CA 92250, USA"
hughson,california,37.6027244,-120.8664811,"7448 Fox Rd, Hughson, CA 95326, USA"
huntington beach,california,33.6594835,-117.9988026,"310 Orange Ave, Huntington Beach, CA 92648, USA"
huntington park,california,33.9816812,-118.2250725,"Gage / Pacific, Huntington Park, CA 90255, USA"
huron,california,36.2027308,-120.1029177,"15799 9th St, Huron, CA 93234, USA"
imperial,california,32.8475528,-115.5694391,"115 E Barioni Blvd, Imperial, CA 92251, USA"
imperial beach,california,32.5839444,-117.1130849,"Palm Av & Emory St, Imperial Beach, CA 91932, USA"
indian wells,california,33.717631,-116.3407549,"75682 Painted Desert Dr, Indian Wells, CA 92210, USA"
indio,california,33.7205771,-116.2155619,"83100 Indio Blvd, Indio, CA 92201, USA"
inglewood,california,33.9616801,-118.3531311,"202 E Manchester Blvd, Inglewood, CA 90301, USA"
ione,california,38.3526912,-120.9327177,"22 CA-104, Ione, CA 95640, USA"
irvine,california,33.6845673,-117.8265049,"Harvard-Alton, Irvine, CA, USA"
jackson,california,38.3488023,-120.7741018,"39 Main St, Jackson, CA 95642, USA"
kerman,california,36.72355719999999,-120.059879,"756 S Madera Ave, Kerman, CA 93630, USA"
king city,california,36.2127439,-121.1260287,"231 Broadway St, King City, CA 93930, USA"
kingsburg,california,36.5138398,-119.5540175,"1496 California St, Kingsburg, CA 93631, USA"
la habra,california,33.9318591,-117.946137,"110 W La Habra Blvd, La Habra, CA 90631, USA"
la mesa,california,32.7678287,-117.0230839,"8118 University Ave, La Mesa, CA 91942, USA"
la mirada,california,33.9172357,-118.0120086,"12333 Imperial Hwy, Whittier, CA 90604, USA"
la palma,california,33.8463218,-118.0461393,"5013 La Palma Ave, La Palma, CA 90623, USA"
la puente,california,34.0200114,-117.9495083,"15955 Main St, La Puente, CA 91744, USA"
la quinta,california,33.6633573,-116.3100095,"53035 Avenida Herrera, La Quinta, CA 92253, USA"
la verne,california,34.1008426,-117.7678355,"2350 E St, La Verne, CA 91750, USA"
lafayette,california,37.8857582,-122.1180201,"872 Moraga Rd, Lafayette, CA 94549, USA"
laguna beach,california,33.5427189,-117.7853568,"211 CA-1, Laguna Beach, CA 92651, USA"
laguna hills,california,33.5916433,-117.6986604,"Paseo De Valencia-Alicia, Laguna Hills, CA 92653, USA"
laguna niguel,california,33.5236744,-117.7149438,"30250 Crown Valley Pkwy, Laguna Niguel, CA 92677, USA"
laguna woods,california,33.6101702,-117.7251162,"El Toro-Moulton, Laguna Woods, CA 92637, USA"
lake elsinore,california,33.6680772,-117.3272615,"104 N Main St, Lake Elsinore, CA 92530, USA"
lake forest,california,33.6469437,-117.6861023,"Lake Forest-Trabuco, Lake Forest, CA 92630, USA"
lakeport,california,39.0429506,-122.9158293,"175 2nd St, Lakeport, CA 95453, USA"
lakewood,california,33.8536269,-118.1339563,"5247 Clark Ave, Lakewood, CA 90712, USA"
lancaster,california,34.6867846,-118.1541632,"1304 W Ave J, Lancaster, CA 93534, USA"
lawndale,california,33.887237,-118.3525744,"Manhattan Beach / Hawthorne, Lawndale, CA 90260, USA"
lemon grove,california,32.7425516,-117.0314172,"7771 Broadway, Lemon Grove, CA 91945, USA"
lemoore,california,36.3007835,-119.7829107,"153 C St, Lemoore, CA 93245, USA"
lincoln,california,38.891565,-121.2930079,"436 G St, Lincoln, CA 95648, USA"
lindsay,california,36.2030064,-119.08816,"246 E Honolulu St, Lindsay, CA 93247, USA"
livermore,california,37.6818745,-121.7680088,"2788 S Livermore Ave, Livermore, CA 94550, USA"
livingston,california,37.3868826,-120.7235329,"344 Main St, Livingston, CA 95334, USA"
lodi,california,38.1341477,-121.2722194,"1 E Pine St, Lodi, CA 95240, USA"
loma linda,california,34.0483474,-117.2611527,"Unnamed Road, Loma Linda, CA 92354, United States"
lomita,california,33.7922392,-118.3150722,"25501 Eshelman Ave, Lomita, CA 90717, USA"
lompoc,california,34.6391501,-120.4579409,"101 N H St, Lompoc, CA 93436, USA"
long beach,california,33.7700504,-118.1937395,"249299 Pacific Avenue, Long Beach, CA 90802, USA"
los alamitos,california,33.8032009,-118.0718894,"Katella-Los Alamitos, Los Alamitos, CA 90720, USA"
los altos,california,37.3852183,-122.1141298,"San Antonio & Almond, Los Altos, CA 94022, USA"
los angeles,california,34.0522342,-118.2436849,"106 W 1st St, Los Angeles, CA 90012, USA"
los banos,california,37.0582786,-120.8499151,"1135 6th St, Los Banos, CA 93635, USA"
los gatos town,california,37.2358078,-121.9623751,"16006 Los Gatos Blvd, Los Gatos, CA 95032, USA"
lynwood,california,33.930293,-118.2114603,"11171 Long Beach Blvd, Lynwood, CA 90262, USA"
madera,california,36.9613356,-120.0607176,"100 N Gateway Dr, Madera, CA 93637, USA"
malibu,california,34.0259216,-118.7797571,"27807 CA-1, Malibu, CA 90265, USA"
mammoth lakes town,california,37.648546,-118.972079,"3372 Main St, Mammoth Lakes, CA 93546, USA"
manhattan beach,california,33.8847361,-118.4109089,"1125 Manhattan Ave, Manhattan Beach, CA 90266, USA"
manteca,california,37.7974273,-121.2160526,"127 E Yosemite Ave, Manteca, CA 95336, USA"
marina,california,36.68440289999999,-121.802173,"3100 Del Monte Blvd, Marina, CA 93933, USA"
martinez,california,38.0193657,-122.1341321,"651 Pine St, Martinez, CA 94553, USA"
marysville,california,39.1457253,-121.5913547,"1001-1025 State Hwy 20, Marysville, CA 95901, USA"
maywood,california,33.9866807,-118.185349,"5900 Atlantic Blvd, Maywood, CA 90270, USA"
mendota,california,36.7535611,-120.3815574,"719 Quince St, Mendota, CA 93640, USA"
menifee,california,33.6971468,-117.185294,"27234 Pinehurst Rd, Sun City, CA 92586, USA"
menlo park,california,37.4529598,-122.1817252,"1001 El Camino Real, Menlo Park, CA 94025, USA"
merced,california,37.3021632,-120.4829677,"1731 Canal St, Merced, CA 95340, USA"
mill valley,california,37.9060368,-122.5449763,"87 E Blithedale Ave, Mill Valley, CA 94941, USA"
milpitas,california,37.4323341,-121.8995741,"419 CA-237, Milpitas, CA 95035, USA"
mission viejo,california,33.5968913,-117.6581562,"27000-27060 La Paz Rd, Mission Viejo, CA 92692, USA"
modesto,california,37.63909719999999,-120.9968782,"781 11th St, Modesto, CA 95354, USA"
monrovia,california,34.1442616,-118.0019482,"137 W Walnut Ave, Monrovia, CA 91016, USA"
montague,california,41.7281985,-122.5278007,"100 S 11th St, Montague, CA 96064, USA"
montclair,california,34.0775104,-117.6897776,"Central @ San Bernardino Sb Fs, Montclair, CA 91763, USA"
montebello,california,34.0165053,-118.1137535,"1301-1411 W Harding Ave, Montebello, CA 90640, USA"
monterey,california,36.6002378,-121.8946761,"140 W Franklin St, Monterey, CA 93940, USA"
monterey park,california,34.0625106,-118.1228476,"Garvey / Garfield, Monterey Park, CA, USA"
moorpark,california,34.285558,-118.8820414,"15 E High St, Moorpark, CA 93021, USA"
moraga town,california,37.8349263,-122.1296871,"1400 Moraga Way, Moraga, CA 94556, USA"
moreno valley,california,33.9424658,-117.2296717,"24805 Hemlock Ave, Moreno Valley, CA 92557, USA"
morgan hill,california,37.1305012,-121.6543901,"17600 Monterey Rd, Morgan Hill, CA 95037, USA"
morro bay,california,35.3659445,-120.8499924,"Main St and, Morro Bay Blvd, Morro Bay, CA 93442, United States"
mount shasta,california,41.3098746,-122.3105666,"418 S Mt Shasta Blvd, Mt Shasta, CA 96067, USA"
mountain view,california,37.3860517,-122.0838511,"790 W El Camino Real, Mountain View, CA 94040, USA"
murrieta,california,33.5539143,-117.2139232,"24792 Washington Ave, Murrieta, CA 92562, USA"
napa,california,38.2975381,-122.286865,"853 Coombs St, Napa, CA 94559, USA"
national city,california,32.6781085,-117.0991967,"999-701 I Ave, National City, CA 91950, USA"
needles,california,34.8480597,-114.6141315,"1701 Needles Hwy, Needles, CA 92363, USA"
nevada city,california,39.2615606,-121.0160594,"107 Sacramento St, Nevada City, CA 95959, USA"
newark,california,37.5296593,-122.0402399,"7541 Thornton Ave, Newark, CA 94560, USA"
newman,california,37.3138267,-121.0207614,"1459 N St, Newman, CA 95360, USA"
newport beach,california,33.6188829,-117.9298493,"3600 Newport Blvd, Newport Beach, CA 92663, USA"
norco,california,33.9311257,-117.548661,"1281 Fifth St, Norco, CA 92860, USA"
norwalk,california,33.9022367,-118.081733,"1182 Rosecrans Ave, Norwalk, CA 90650, USA"
novato,california,38.1074198,-122.5697032,"997 Grant Ave, Novato, CA 94945, USA"
oakdale,california,37.7665947,-120.8471545,"325a CA-108, Oakdale, CA 95361, USA"
oakland,california,37.8043637,-122.2711137,"1395 Broadway, Oakland, CA 94612, USA"
oakley,california,37.9974219,-121.7124536,"3617 Main St, Oakley, CA 94561, USA"
oceanside,california,33.1958696,-117.3794834,"500 Mission Ave, Oceanside, CA 92054, USA"
ojai,california,34.4480495,-119.242889,"423 E Ojai Ave, Ojai, CA 93023, USA"
ontario,california,34.0633443,-117.6508876,"100 N Euclid Ave, Ontario, CA 91762, USA"
orange,california,33.7879139,-117.8531007,"1 Plaza Square, Orange, CA 92866, USA"
orange cove,california,36.624394,-119.3137301,"711 Park Blvd, Orange Cove, CA 93646, USA"
orinda,california,37.8771476,-122.1796888,"93 Moraga Way, Orinda, CA 94563, USA"
orland,california,39.7473803,-122.1963748,"510 Walker St, Orland, CA 95963, USA"
oroville,california,39.5137752,-121.556359,"1919 Montgomery St, Oroville, CA 95965, USA"
oxnard,california,34.1975048,-119.1770516,"108 E 5th St, Oxnard, CA 93030, USA"
pacific grove,california,36.6177374,-121.9166215,"485 Pine Ave, Pacific Grove, CA 93950, USA"
pacifica,california,37.6138253,-122.4869194,"160 Reina Del Mar Ave, Pacifica, CA 94044, USA"
palm desert,california,33.7222445,-116.3744556,"73950 Alessandro Dr, Palm Desert, CA 92260, USA"
palm springs,california,33.8302961,-116.5452921,"201 E Alejo Rd, Palm Springs, CA 92262, USA"
palmdale,california,34.5794343,-118.1164613,"700 Sierra Hwy, Palmdale, CA 93550, USA"
palo alto,california,37.4418834,-122.1430195,"668 Coleridge Ave, Palo Alto, CA 94301, USA"
paradise,california,39.7596061,-121.6219177,"765 Elliott Rd, Paradise, CA 95969, USA"
paramount,california,33.8894598,-118.1597911,"15754 Paramount Blvd, Paramount, CA 90723, USA"
parlier,california,36.6116174,-119.5270734,"660 Fresno St, Parlier, CA 93648, USA"
pasadena,california,34.1477849,-118.1445155,"279 E Holly St, Pasadena, CA 91101, USA"
patterson,california,37.4716001,-121.129656,"10 S 3rd St, Patterson, CA 95363, USA"
perris,california,33.7825194,-117.2286478,"359-325 S D St, Perris, CA 92570, USA"
petaluma,california,38.232417,-122.6366524,"201 Petaluma Blvd S, Petaluma, CA 94952, USA"
pico rivera,california,33.9830688,-118.096735,"6750 Rosemead Blvd, Pico Rivera, CA 90660, USA"
pinole,california,38.0043667,-122.2988587,"1588 San Pablo Ave, Pinole, CA 94564, USA"
pismo beach,california,35.1427533,-120.6412827,"891 US-101 BUS, Pismo Beach, CA 93449, USA"
pittsburg,california,38.0279762,-121.8846806,"160 E 10th St, Pittsburg, CA 94565, USA"
placentia,california,33.8710729,-117.8627548,"Kraemer-Chapman, Placentia, CA 92870, USA"
placerville,california,38.7296252,-120.798546,"3025 Sacramento St, Placerville, CA 95667, USA"
pleasant hill,california,37.9479786,-122.0607963,"Gregory Ln/Contra Costa Blvd, Pleasant Hill, CA 94523, USA"
pleasanton,california,37.6624312,-121.8746789,"652 Main St, Pleasanton, CA 94566, USA"
pomona,california,34.055103,-117.7499909,"Garey Ave and Mission S, Pomona, CA 91766, USA"
port hueneme,california,34.1477829,-119.1951074,"425 E Port Hueneme Rd, Port Hueneme, CA 93041, USA"
porterville,california,36.06523,-119.0167679,"8 W Olive Ave, Porterville, CA 93257, USA"
poway,california,32.9628232,-117.0358646,"13608 Putney Rd, Poway, CA 92064, USA"
rancho cordova,california,38.5890723,-121.302728,"10400-10416 Folsom Blvd, Rancho Cordova, CA 95670, USA"
rancho cucamonga,california,34.10639889999999,-117.5931084,"9719 E Foothill Blvd, Rancho Cucamonga, CA 91730, USA"
rancho mirage,california,33.739744,-116.41279,"42511 E Veldt St, Rancho Mirage, CA 92270, USA"
rancho palos verdes,california,33.7444613,-118.3870173,"11 Barkentine Rd, Rancho Palos Verdes, CA 90275, USA"
rancho santa margarita,california,33.640171,-117.602832,"30102 Santa Margarita Pkwy, Rancho Santa Margarita, CA 92688, USA"
red bluff,california,40.1784886,-122.2358302,"810 Main St, Red Bluff, CA 96080, USA"
redding,california,40.5865396,-122.3916754,"1289 CA-273, Redding, CA 96001, USA"
redlands,california,34.0555693,-117.1825381,"18 E Citrus Ave, Redlands, CA 92373, USA"
redondo beach,california,33.8491816,-118.3884078,"501 Beryl St, Redondo Beach, CA 90277, USA"
redwood city,california,37.48521520000001,-122.2363548,"1201 Brewster Ave, Redwood City, CA 94062, USA"
reedley,california,36.5963395,-119.4504029,"1108 G St, Reedley, CA 93654, USA"
rialto,california,34.1064001,-117.3703235,"Riverside @ Foothill Sb Fs, Rialto, CA 92376, USA"
richmond,california,37.9357576,-122.3477486,"2235 Macdonald Ave, Richmond, CA 94801, USA"
ridgecrest,california,35.6224561,-117.6708966,"634 S China Lake Blvd, Ridgecrest, CA 93555, USA"
rio dell,california,40.4993013,-124.1064369,"40 W Davis St, Rio Dell, CA 95562, USA"
rio vista,california,38.1557502,-121.6913439,"107 Main St, Rio Vista, CA 94571, USA"
ripon,california,37.7394537,-121.1354141,"P O Box 509, Ripon, CA 95366, United States"
riverbank,california,37.7360396,-120.9354895,"3300 Santa Fe St, Riverbank, CA 95367, USA"
riverside,california,33.9806005,-117.3754942,"3900 Main St, Riverside, CA 92501, USA"
rocklin,california,38.7907339,-121.2357828,"5175 Pacific St, Rocklin, CA 95677, USA"
rohnert park,california,38.3396367,-122.7010984,"491 Alta Ave, Rohnert Park, CA 94928, USA"
rosemead,california,34.0805651,-118.072846,"9000 Valley Blvd, Rosemead, CA 91770, USA"
roseville,california,38.7521235,-121.2880059,"301-307 Washington Blvd, Roseville, CA 95678, USA"
sacramento,california,38.5815719,-121.4943996,"907 9th St, Sacramento, CA 95814, USA"
salinas,california,36.6777372,-121.6555013,"1 Main St, Salinas, CA 93901, USA"
san bernardino,california,34.1083449,-117.2897652,"300-312 W 5th St, San Bernardino, CA 92401, USA"
san bruno,california,37.6304904,-122.4110835,"222 San Bruno Ave E, San Bruno, CA 94066, USA"
san clemente,california,33.4273521,-117.6126004,"99 Avenida Del Mar, San Clemente, CA 92672, USA"
san diego,california,32.715738,-117.1610838,"998 Fourth Ave, San Diego, CA 92101, USA"
san dimas,california,34.1066756,-117.8067257,"Bonita Ave and San Dimas Ave E, San Dimas, CA 91773, USA"
san fernando,california,34.2819461,-118.4389719,"801 Truman St, San Fernando, CA 91340, USA"
san francisco,california,37.7749295,-122.4194155,"Unnamed Road, San Francisco, CA 94102, USA"
san gabriel,california,34.09611110000001,-118.1058333,"420 W Mission Rd, San Gabriel, CA 91776, USA"
san jacinto,california,33.7839084,-116.958635,"123 E Main St, San Jacinto, CA 92583, USA"
san jose,california,37.3382082,-121.8863286,"195 E Santa Clara St, San Jose, CA 95112, USA"
san juan capistrano,california,33.5019027,-117.6627655,"26801 Ortega Hwy, San Juan Capistrano, CA 92675, USA"
san leandro,california,37.7249296,-122.1560768,"1221 E 14th St, San Leandro, CA 94577, USA"
san luis obispo,california,35.2827524,-120.6596156,"San Luis Obispo, San Luis Obispo, CA 93401, USA"
san marcos,california,33.1433723,-117.1661449,"236 W Mission Rd, San Marcos, CA 92069, USA"
san marino,california,34.121397,-118.1064585,"2180 Huntington Dr, San Marino, CA 91108, USA"
san mateo,california,37.5629917,-122.3255254,"2 E 3rd Ave, San Mateo, CA 94401, USA"
san pablo,california,37.9621457,-122.3455263,"2100 23rd St, San Pablo, CA 94806, USA"
san rafael,california,37.9735346,-122.5310874,"1314 4th St, San Rafael, CA 94901, USA"
san ramon,california,37.7799273,-121.9780153,"San Ramon Valley Blvd Between Fostoria Way, San Ramon, CA 94583, USA"
sanger,california,36.708006,-119.5559652,"540 Academy Ave, Sanger, CA 93657, USA"
santa ana,california,33.7454725,-117.867653,"1st-Main, Santa Ana, CA 92701, USA"
santa barbara,california,34.4208305,-119.6981901,"100 E De La Guerra St, Santa Barbara, CA 93101, USA"
santa clara,california,37.3541079,-121.9552356,"1675 Lincoln St, Santa Clara, CA 95050, USA"
santa clarita,california,34.3916641,-118.542586,"25128 Newhall Ave, Santa Clarita, CA 91321, USA"
santa cruz,california,36.9741171,-122.0307963,"598 Chestnut St, Santa Cruz, CA 95060, USA"
santa fe springs,california,33.9472359,-118.0853451,"11627 Telegraph Rd, Santa Fe Springs, CA 90670, USA"
santa maria,california,34.9530337,-120.4357191,"2220 S Broadway, Santa Maria, CA 93454, USA"
santa monica,california,34.0194543,-118.4911912,"802 Santa Monica Blvd, Santa Monica, CA 90401, USA"
santa paula,california,34.3541659,-119.0592705,"1033 E Main St, Santa Paula, CA 93060, USA"
santa rosa,california,38.440429,-122.7140548,"570 4th St, Santa Rosa, CA 95401, USA"
santee,california,32.8383828,-116.9739167,"Mission Gorge Rd & Cottonwood Av, Santee, CA 92071, USA"
saratoga,california,37.2638324,-122.0230146,"10661 Douglass Ln, Saratoga, CA 95070, USA"
sausalito,california,37.8590937,-122.4852507,"324 Pine St, Sausalito, CA 94965, USA"
scotts valley,california,37.0510595,-122.0146841,"4859 Scotts Valley Dr, Scotts Valley, CA 95066, USA"
seal beach,california,33.7414085,-118.1047682,"148 Main St, Seal Beach, CA 90740, USA"
seaside,california,36.6149217,-121.822098,"1817 Juarez St, Seaside, CA 93955, USA"
sebastopol,california,38.4021359,-122.8238806,"101 S Main St, Sebastopol, CA 95472, USA"
selma,california,36.5707838,-119.6120765,"2050 Arrants St, Selma, CA 93662, USA"
shafter,california,35.5005139,-119.2717761,"777 Central Valley Hwy, Shafter, CA 93263, USA"
sierra madre,california,34.1616729,-118.0528456,"17 Kersting Ct, Sierra Madre, CA 91024, USA"
signal hill,california,33.8044614,-118.1678456,"Willow & Cherry NW, Signal Hill, CA 90755, USA"
simi valley,california,34.2694474,-118.781482,"864 Pacific Ave, Simi Valley, CA 93065, USA"
solana beach,california,32.991155,-117.2711481,"143j S Cedros Ave, Solana Beach, CA 92075, USA"
soledad,california,36.424687,-121.3263187,"900 Front St, Soledad, CA 93960, USA"
solvang,california,34.5958201,-120.1376481,"1714 Mission Dr, Solvang, CA 93463, USA"
sonoma,california,38.291859,-122.4580356,"501 Broadway, Sonoma, CA 95476, USA"
sonora,california,37.9829496,-120.3821724,"181 S Washington St, Sonora, CA 95370, USA"
south el monte,california,34.0519548,-118.0467339,"Rush / Central, South El Monte, CA 91733, USA"
south gate,california,33.954737,-118.2120161,"Firestone / State, South Gate, CA 90280, USA"
south lake tahoe,california,38.939926,-119.9771868,"3053 Lake Tahoe Blvd, South Lake Tahoe, CA 96150, USA"
south pasadena,california,34.1161196,-118.1503488,"Fair Oaks / Mission, South Pasadena, CA 91030, USA"
south san francisco,california,37.654656,-122.4077498,"296 Airport Blvd, South San Francisco, CA 94080, USA"
stanton,california,33.8028875,-117.9931203,"Beach-Katella, Stanton, CA 90680, USA"
stockton,california,37.9577016,-121.2907796,"510 N El Dorado St, Stockton, CA 95202, USA"
suisun city,california,38.2382474,-122.040244,"700 Main St, Suisun City, CA 94585, USA"
sunnyvale,california,37.36883,-122.0363496,"390 W El Camino Real, Sunnyvale, CA 94087, USA"
susanville,california,40.4162842,-120.6530063,"39 Foss St, Susanville, CA 96130, USA"
sutter creek,california,38.3929675,-120.8024357,"36 Main St, Sutter Creek, CA 95685, USA"
taft,california,35.1424671,-119.4565078,"330 4th St, Taft, CA 93268, USA"
tehachapi,california,35.1321877,-118.4489739,"160 W Tehachapi Blvd, Tehachapi, CA 93561, USA"
temecula,california,33.4936391,-117.1483648,"41990 Main St, Temecula, CA 92590, USA"
temple city,california,34.1072305,-118.0578456,"9701 Las Tunas Dr, Temple City, CA 91780, USA"
thousand oaks,california,34.1705609,-118.8375937,"2945 Thousand Oaks Blvd, Thousand Oaks, CA 91362, USA"
torrance,california,33.8358492,-118.3406288,"3221 Torrance Blvd, Torrance, CA 90503, USA"
tracy,california,37.7396513,-121.4252227,"22 Eleventh St, Tracy, CA 95376, USA"
truckee town,california,39.327962,-120.1832533,"10027 Donner Pass Rd, Truckee, CA 96161, USA"
tulare,california,36.2077288,-119.3473379,"115 E Tulare Ave, Tulare, CA 93274, USA"
tulelake,california,41.9559884,-121.4774916,"338 C St, Tulelake, CA 96134, USA"
turlock,california,37.4946568,-120.8465941,"111 N Golden State Blvd, Turlock, CA 95380, USA"
tustin,california,33.7420005,-117.8236391,"100 W Main St, Tustin, CA 92780, USA"
twentynine palms,california,34.1355582,-116.0541689,"73709 Twentynine Palms Highway, Twentynine Palms, CA 92277, USA"
ukiah,california,39.1501709,-123.2077831,"101 N State St, Ukiah, CA 95482, USA"
union city,california,37.5933918,-122.0438298,"Alvarado-Niles Rd & Dowe Av, Union City, CA 94587, USA"
upland,california,34.09751,-117.6483876,"308B N 2nd Ave, Upland, CA 91786, USA"
vacaville,california,38.3565773,-121.9877444,"300-328 Elizabeth St, Vacaville, CA 95688, USA"
vallejo,california,38.1040864,-122.2566367,"901 Marin St, Vallejo, CA 94590, USA"
victorville,california,34.5362184,-117.2927641,"15655 7th St, Victorville, CA 92395, USA"
villa park,california,33.81400620000001,-117.8220723,"17583 Santiago Blvd, Villa Park, CA 92861, USA"
visalia,california,36.3302284,-119.2920585,"22223 Carson Ave, Visalia, CA 93291, USA"
vista,california,33.2000368,-117.2425355,"223 S Santa Fe Ave, Vista, CA 92083, USA"
walnut,california,34.0202894,-117.8653386,"20149 La Puente Rd, Walnut, CA 91789, USA"
walnut creek,california,37.9100783,-122.0651819,"2225 N Main St, Walnut Creek, CA 94596, USA"
waterford,california,37.6413202,-120.7604834,"12705 Bentley St, Waterford, CA 95386, USA"
watsonville,california,36.910231,-121.7568946,"5 E Beach St, Watsonville, CA 95076, USA"
weed,california,41.42264979999999,-122.3861269,"228 Grove St, Weed, CA 96094, USA"
west covina,california,34.0686208,-117.9389526,"705 S Sunset Ave, West Covina, CA 91790, USA"
west hollywood,california,34.0900091,-118.3617443,"1049 N Fairfax Ave, West Hollywood, CA 90046, USA"
west sacramento,california,38.5804609,-121.530234,"1640 Lincoln Hwy, West Sacramento, CA 95691, USA"
westlake village,california,34.1466467,-118.8073729,"1 WellPoint Way, Thousand Oaks, CA 91362, USA"
westminster,california,33.7591757,-117.9897058,"14011 Beach Blvd, Westminster, CA 92683, USA"
westmorland,california,33.0372674,-115.6213817,"194 N Center St, Westmorland, CA 92281, USA"
wheatland,california,39.0098946,-121.4230133,"503 Main St, Wheatland, CA 95692, USA"
whittier,california,33.9791793,-118.032844,"13363-13399 Philadelphia St, Whittier, CA 90601, USA"
wildomar,california,33.5989126,-117.2800372,"21436 Grand Ave, Wildomar, CA 92595, USA"
williams,california,39.1546137,-122.1494187,"663 E St, Williams, CA 95987, USA"
willits,california,39.4096079,-123.3555656,"291 School St, Willits, CA 95490, USA"
willows,california,39.5243265,-122.1935931,"410 N Tehama St, Willows, CA 95988, USA"
windsor town,california,38.5471327,-122.8163802,"378 Windsor River Rd, Windsor, CA 95492, USA"
winters,california,38.5249065,-121.9708017,"2 Grant Ave, Winters, CA 95694, USA"
woodlake,california,36.4135605,-119.0987176,"384 Danielle Way, Woodlake, CA 93286, USA"
woodland,california,38.67851570000001,-121.7732971,"300 1st St, Woodland, CA 95695, USA"
yorba linda,california,33.88850350000001,-117.8132571,"18992 Yorba Linda Blvd, Yorba Linda, CA 92886, USA"
yountville,california,38.40157809999999,-122.3608105,"6509 Washington St, Yountville, CA 94599, USA"
yreka,california,41.7354186,-122.6344709,"414 N Main St, Yreka, CA 96097, USA"
yuba city,california,39.1404477,-121.6169108,"444 Colusa Ave, Yuba City, CA 95991, USA"
yucaipa,california,34.033625,-117.0430865,"34909 Yucaipa Blvd, Yucaipa, CA 92399, USA"
yucca valley town,california,34.1141743,-116.432235,"56329 Stardust Trail, Yucca Valley, CA 92284, USA"
aurora,colorado,39.7294319,-104.8319195,"899 Vaughn St, Aurora, CO 80011, USA"
boulder,colorado,40.0149856,-105.2705456,"1515 19th St, Boulder, CO 80302, USA"
broomfield,colorado,39.9205411,-105.0866504,"300 Nickel St, Broomfield, CO 80020, USA"
castle rock town,colorado,39.3722121,-104.8560902,"222 Cantril St, Castle Rock, CO 80104, USA"
colorado springs,colorado,38.8338816,-104.8213634,"200 E Pikes Peak Ave, Colorado Springs, CO 80903, USA"
denver,colorado,39.7392358,-104.990251,"1437 Bannock St, Denver, CO 80202, USA"
erie town,colorado,40.0502623,-105.0499817,"575 Holbrook St, Erie, CO 80516, USA"
golden,colorado,39.755543,-105.2210997,"1117 Washington Ave, Golden, CO 80401, USA"
lafayette,colorado,39.9935959,-105.0897058,"504 S Public Rd, Lafayette, CO 80026, USA"
littleton,colorado,39.613321,-105.0166498,"2420 W Main St, Littleton, CO 80120, USA"
lone tree,colorado,39.536482,-104.8970678,"IndianTrails rd, Lone Tree, CO 80124, United States"
louisville,colorado,39.977763,-105.1319296,"740 Main St, Louisville, CO 80027, USA"
monument town,colorado,39.0916586,-104.872758,"105 2nd St, Monument, CO 80132, USA"
parker town,colorado,39.5186002,-104.7613633,"19594 Mainstreet, Parker, CO 80138, USA"
windsor town,colorado,40.4774818,-104.9013617,"318 Elm St, Windsor, CO 80550, USA"
bridgeport,connecticut,41.1792258,-73.1894384,"108 Fairfield Ave, Bridgeport, CT 06604, USA"
cheshire village,connecticut,41.5083668,-72.9106202,"99 Grove St, Cheshire, CT 06410, USA"
darien,connecticut,41.0771914,-73.4686858,"26-2 Mechanic St, Darien, CT 06820, USA"
east hartford,connecticut,41.7634219,-72.6128339,"741R Silver Ln, East Hartford, CT 06118, USA"
glastonbury center,connecticut,41.6861794,-72.5450779,"176 Three Mile Rd, Glastonbury, CT 06033, USA"
greenwich,connecticut,41.0262417,-73.6281964,"40 W Elm St, Greenwich, CT 06830, USA"
guilford center,connecticut,41.288906,-72.674364,"Boston Post Rd and Village Walk, Guilford, CT 06437, USA"
hartford,connecticut,41.7658043,-72.6733723,"P O Box 341193, Hartford, CT 06103, United States"
madison center,connecticut,41.2959908,-72.5754149,"12 Campus Dr, Madison, CT 06443, USA"
new britain,connecticut,41.6612104,-72.7795419,"110 Franklin Square, New Britain, CT 06051, USA"
new haven,connecticut,41.308274,-72.9278835,"285 College St, New Haven, CT 06510, USA"
new london,connecticut,41.3556539,-72.0995209,"20 Adedayo Omotolani Street, Estate, Baruwa, Lagos, New London, CT 06320, United States"
newington,connecticut,41.6972996,-72.7228293,"1068 Main St, Newington, CT 06111, USA"
orange,connecticut,41.278637,-73.0265277,"205 Meetinghouse Ln, Orange, CT 06477, USA"
ridgefield,connecticut,41.28406349999999,-73.4975412,"25 Prospect St, Ridgefield, CT 06877, USA"
simsbury center,connecticut,41.8540094,-72.82791499999999,"27 Springbrook Ln, Simsbury, CT 06070, USA"
trumbull,connecticut,41.2428563,-73.2006639,"49 Moorland Rd, Trumbull, CT 06611, USA"
waterbury,connecticut,41.5581525,-73.0514965,"594 W Main St, Waterbury, CT 06702, USA"
west hartford,connecticut,41.7620842,-72.7420151,"946 Farmington Ave, West Hartford, CT 06107, USA"
westport,connecticut,41.1414717,-73.3579049,"223 State St E, Westport, CT 06880, USA"
wethersfield,connecticut,41.7063537,-72.6596244,"3 Wells Rd, Wethersfield, CT 06109, USA"
willimantic,connecticut,41.7106543,-72.2081338,"503 Main St, Willimantic, CT 06226, USA"
wilton center,connecticut,41.190941,-73.427643,"Wilton Center, Wilton, CT 06897, USA"
bethany beach town,delaware,38.5395564,-75.0551806,"c4 edgewater house rd, Bethany Beach, DE 19930, USA"
bridgeville town,delaware,38.7426137,-75.60437139999999,"315 Market St, Bridgeville, DE 19933, USA"
clayton town,delaware,39.2906671,-75.6343727,"401 Main St, Clayton, DE 19938, USA"
dagsboro town,delaware,38.5492801,-75.2457443,"27515 Hodges Lane, N#4, Dagsboro, DE 19939, United States"
delaware city,delaware,39.5778901,-75.588815,"93 Clinton St, Delaware City, DE 19706, USA"
delmar town,delaware,38.4565052,-75.57714709999999,"9 E State St, Delmar, DE 19940, USA"
dover,delaware,39.158168,-75.5243682,"201 S State St, Dover, DE 19904, USA"
ellendale town,delaware,38.8070575,-75.422697,"311 Main St, Ellendale, DE 19941, USA"
felton town,delaware,39.0084463,-75.5779807,"124 W Main St, Felton, DE 19943, USA"
frankford town,delaware,38.5173356,-75.2349107,"46 Frankford Ave, Frankford, DE 19945, USA"
frederica town,delaware,39.0090017,-75.46575419999999,"6 Market St, Frederica, DE 19946, USA"
georgetown town,delaware,38.6901134,-75.38547280000002,"99-20 The Circle, Georgetown, DE 19947, USA"
greenwood town,delaware,38.8070578,-75.59131529999999,"21 Market St, Greenwood, DE 19950, USA"
harrington,delaware,38.9237244,-75.5777033,"2 Commerce St, Harrington, DE 19952, USA"
laurel town,delaware,38.5565041,-75.5713141,"Food Lion, 30214 Sussex Highway, Laurel, DE 19956, United States"
lewes,delaware,38.7745565,-75.13934979999999,"212 Savannah Rd, Lewes, DE 19958, USA"
middletown town,delaware,39.449556,-75.7163207,"8 E Main St, Middletown, DE 19709, USA"
milford,delaware,38.9126129,-75.4279748,"9 S E Front St, Milford, DE 19963, USA"
millsboro town,delaware,38.59150229999999,-75.2913018,"238 Main St, Millsboro, DE 19966, USA"
milton town,delaware,38.7776124,-75.3099136,"107 Front St, Milton, DE 19968, USA"
new castle,delaware,39.6620397,-75.5668166,"531 Delaware St, New Castle, DE 19720, USA"
newark,delaware,39.6837226,-75.74965720000002,"92 E Main St, Newark, DE 19711, USA"
ocean view town,delaware,38.5451122,-75.0890709,"56 West Ave, Ocean View, DE 19970, USA"
rehoboth beach,delaware,38.7209454,-75.07601369999999,"1 Grenoble Pl, Rehoboth Beach, DE 19971, USA"
seaford,delaware,38.6412256,-75.6110381,"103 S Pine St, Seaford, DE 19973, USA"
selbyville town,delaware,38.4603917,-75.2207437,"2 Church St, Selbyville, DE 19975, USA"
smyrna town,delaware,39.2998339,-75.6046494,"100 S Main St, Smyrna, DE 19977, USA"
wilmington,delaware,39.744655,-75.5483909,"838 N Market St, Wilmington, DE 19801, USA"
washington,district of columbia,38.9071923,-77.0368707,"1301 Bataan St NW, Washington, DC 20036, USA"
alachua,florida,29.7938144,-82.49442260000001,"Message Ctr , Alachua, FL 32615, Alachua, FL 32615, United States"
auburndale,florida,28.0652975,-81.7886906,"103 Main St, Auburndale, FL 33823, USA"
bartow,florida,27.8964147,-81.8431374,"3585 us Hwy 17 N, Bartow, FL 33830, United States"
belle glade,florida,26.6845104,-80.6675577,"209 S Main St, Belle Glade, FL 33430, USA"
boca raton,florida,26.3683064,-80.1289321,"2331 FL-808, Boca Raton, FL 33431, USA"
boynton beach,florida,26.5317866,-80.0905465,"1790 N Congress Ave, Boynton Beach, FL 33426, USA"
bradenton,florida,27.4989278,-82.5748194,"1301 1st Ave W, Bradenton, FL 34205, USA"
clermont,florida,28.5494447,-81.77285429999999,"1055 Linden St, Clermont, FL 34711, USA"
cocoa,florida,28.3861159,-80.7419984,"112-198 Circle Dr, Cocoa, FL 32922, USA"
daytona beach,florida,29.2108147,-81.0228331,"301 US-92, Daytona Beach, FL 32114, USA"
delray beach,florida,26.4614625,-80.0728201,"4 E Atlantic Ave, Delray Beach, FL 33444, USA"
dunedin,florida,28.0197404,-82.7717684,"Traveling Instructor, Dunedin, FL 34698, United States"
fernandina beach,florida,30.6696818,-81.46259189999999,"312 Ash St, Fernandina Beach, FL 32034, USA"
fort lauderdale,florida,26.1224386,-80.13731740000001,"599 E Broward Blvd, Fort Lauderdale, FL 33301, USA"
fort myers,florida,26.640628,-81.8723084,"104 Tamiami Trail, Fort Myers, FL 33901, USA"
fort pierce,florida,27.4467056,-80.3256056,"106 US-1, Fort Pierce, FL 34950, USA"
gulf breeze,florida,30.3571438,-87.1638574,"843 Gulf Breeze Pkwy, Gulf Breeze, FL 32561, USA"
hialeah,florida,25.8575963,-80.2781057,"228 E 39th St, Hialeah, FL 33013, USA"
hollywood,florida,26.0112014,-80.1494901,"2100 FL-820, Hollywood, FL 33020, USA"
homestead,florida,25.4687224,-80.4775569,"180 S Flagler Ave, Homestead, FL 33030, USA"
jacksonville,florida,30.3321838,-81.65565099999999,"720n N Ocean St, Jacksonville, FL 32202, USA"
jacksonville beach,florida,30.2841224,-81.3961338,"320 S 7th St, Jacksonville Beach, FL 32250, USA"
jupiter farms,florida,26.9422282,-80.1909191,"17999 Jupiter Farms Rd, Jupiter, FL 33478, USA"
jupiter inlet colony town,florida,26.9478705,-80.07444579999999,"228 Colony Rd, Jupiter, FL 33469, USA"
jupiter island town,florida,27.0314437,-80.1014311,"242 S Beach Rd, Hobe Sound, FL 33455, USA"
jupiter town,florida,26.9342246,-80.0942087,"100 W Indiantown Rd, Jupiter, FL 33458, USA"
kissimmee,florida,28.2919557,-81.40757099999999,"Robards Number Four Heliport, Kissimmee, FL 34746, USA"
lady lake town,florida,28.9174855,-81.92286039999999,"120 US-441, Lady Lake, FL 32159, USA"
lake city,florida,30.1896756,-82.6392899,"12438 S, US-441, Lake City, FL 32025, United States"
lake mary,florida,28.7588833,-81.3178446,"Lake Mary SunRail, Lake Mary, FL 32746, USA"
lakeland,florida,28.0394654,-81.9498042,"801 E Walnut St, Lakeland, FL 33801, USA"
leesburg,florida,28.810823,-81.87785819999999,"515 W Main St, Leesburg, FL 34748, USA"
longwood,florida,28.7030519,-81.3384011,"487 E Palmetto Ave, Longwood, FL 32750, USA"
lynn haven,florida,30.2454776,-85.64826099999999,"825 Ohio Ave, Lynn Haven, FL 32444, USA"
maitland,florida,28.6277767,-81.36312439999999,"110 Orlando Ave, Maitland, FL 32751, USA"
marco island,florida,25.9397412,-81.70753549999999,"123 Z, Marco Island, FL 34145, United States"
melbourne,florida,28.0836269,-80.60810889999999,"800 E Seminole Ave, Melbourne, FL 32901, USA"
miami,florida,25.7616798,-80.1917902,"1213 Brickell Ave, Miami, FL 33131, USA"
miami gardens,florida,25.9420377,-80.2456045,"18400 FL-817, Miami Gardens, FL 33056, USA"
mount dora,florida,28.8024918,-81.644519,"714 N Donnelly St, Mt Dora, FL 32757, USA"
naples,florida,26.1420358,-81.7948103,"482498 Tamiami Trail, Naples, FL 34102, USA"
new smyrna beach,florida,29.0258191,-80.9269984,"219 N Dixie Fwy, New Smyrna Beach, FL 32168, USA"
niceville,florida,30.5168639,-86.48217199999999,"210 Reynolds Ave, Niceville, FL 32578, USA"
north palm beach village,florida,26.8171165,-80.0590804,"109 Paradise Harbour Blvd, #106, C/O Virginia Altork, North Palm Beach, FL 33408, United States"
okeechobee,florida,27.2439349,-80.82978279999999,"106 N Parrott Ave, Okeechobee, FL 34972, USA"
oldsmar,florida,28.0341847,-82.6650992,"417 Park Blvd, Oldsmar, FL 34677, USA"
orlando,florida,28.5383355,-81.3792365,"2 W South St, Orlando, FL 32801, USA"
ormond beach,florida,29.2858129,-81.0558894,"4 N Beach St, Ormond Beach, FL 32174, USA"
oviedo,florida,28.669997,-81.20812029999999,"20 E Broadway St, Oviedo, FL 32765, USA"
palatka,florida,29.6485801,-81.6375819,"819 FL-15, Palatka, FL 32177, USA"
palm beach gardens,florida,26.8233946,-80.13865469999999,"1048 Diamond Head Way, Palm Beach Gardens, FL 33418, USA"
panama city,florida,30.1588129,-85.6602058,"2-98 E 6th St, Panama City, FL 32401, USA"
pembroke pines,florida,26.007765,-80.2962555,"11230 Pines Blvd, Pembroke Pines, FL 33026, USA"
perry,florida,30.1115662,-83.58210629999999,"27 W Hampton Springs Ave, Perry, FL 32347, USA"
pompano beach,florida,26.2378597,-80.1247667,"621 N Dixie Hwy, Pompano Beach, FL 33060, USA"
port orange,florida,29.1383165,-80.9956105,"535 Locust St, Port Orange, FL 32127, USA"
punta gorda,florida,26.9297836,-82.0453664,"1010 Taylor St, Punta Gorda, FL 33950, USA"
quincy,florida,30.5880468,-84.59105799999999,"976 N Pat Thomas Pkwy, Quincy, FL 32351, USA"
rockledge,florida,28.3164498,-80.72698539999999,"819 Topaz Dr, Rockledge, FL 32955, USA"
safety harbor,florida,27.9908529,-82.6931553,"595 Main St, Safety Harbor, FL 34695, USA"
sanford,florida,28.8028612,-81.269453,"211 W 11th St, Sanford, FL 32771, USA"
sarasota,florida,27.3364347,-82.53065269999999,"2005 Main St, Sarasota, FL 34237, USA"
satellite beach,florida,28.1761233,-80.59005189999999,"1303 Florida A1A, Satellite Beach, FL 32937, USA"
sebastian,florida,27.816415,-80.4706078,"1130 Louisiana Ave, Sebastian, FL 32958, USA"
sebring,florida,27.495592,-81.440907,"209 Circle Park Dr, Sebring, FL 33870, USA"
seminole,florida,27.8397466,-82.79121339999999,"10999 Park Blvd N, Seminole, FL 33772, USA"
stuart,florida,27.197548,-80.2528257,"2 Florida A1A, Stuart, FL 34994, USA"
tampa,florida,27.950575,-82.4571776,"509 E Zack St, Tampa, FL 33602, USA"
tarpon springs,florida,28.1461248,-82.7567679,"4 S Pinellas Ave, Tarpon Springs, FL 34689, USA"
venice,florida,27.0997775,-82.4542632,"601 W Venice Ave, Venice, FL 34285, USA"
vero beach,florida,27.6386434,-80.39727359999999,"1201 20th St, Vero Beach, FL 32960, USA"
wellington village,florida,26.6617635,-80.2683571,"13998 Wellington Trace, Wellington, FL 33414, USA"
west palm beach,florida,26.7153424,-80.0533746,"294 N Dixie Hwy, West Palm Beach, FL 33401, USA"
windermere town,florida,28.4955593,-81.53479519999999,"503b Main St, Windermere, FL 34786, USA"
winter springs,florida,28.6988853,-81.30812259999999,"250 FL-434, Winter Springs, FL 32708, USA"
albany,georgia,31.5785074,-84.15574099999999,"323-399 Pine Ave, Albany, GA 31701, USA"
alpharetta,georgia,34.0753762,-84.2940899,"10405 Old Roswell Rd, Alpharetta, GA 30022, USA"
americus,georgia,32.0723861,-84.23268759999999,"Municipal Building City of Americus, 101 W Lamar St, Americus, GA 31709, USA"
atlanta,georgia,33.7489954,-84.3879824,"Georgia State Capitol, Atlanta, GA 30334, USA"
austell,georgia,33.8126059,-84.6343783,"2765 Veterans Memorial Hwy SW, Austell, GA 30168, USA"
bainbridge,georgia,30.9037995,-84.57546990000002,"401-403 S Broad St, Bainbridge, GA 39819, USA"
blairsville,georgia,34.8761989,-83.95824119999999,"55 Blue Ridge St, Blairsville, GA 30512, USA"
brunswick,georgia,31.1499528,-81.49148939999999,"3614, Brunswick, GA 31520, United States"
calhoun,georgia,34.502587,-84.9510542,"101-129 GA-3, Calhoun, GA 30701, USA"
canton,georgia,34.2367621,-84.4907621,"101 W Main St, Canton, GA 30114, USA"
cedartown,georgia,34.0112715,-85.25658229999999,"144 West Ave, Cedartown, GA 30125, USA"
chatsworth,georgia,34.7659145,-84.7699385,"101 S 3rd Ave, Chatsworth, GA 30705, USA"
clarkston,georgia,33.8095487,-84.23964339999999,"4193 E Ponce de Leon Ave, Clarkston, GA 30021, USA"
columbus,georgia,32.4609764,-84.9877094,"801-803 Veterans Pkwy, Columbus, GA 31901, USA"
conyers,georgia,33.6676103,-84.01769039999999,"868 North Main St NW, Conyers, GA 30012, USA"
cordele,georgia,31.9635074,-83.7823938,"100-104 GA-30, Cordele, GA 31015, USA"
covington,georgia,33.5967815,-83.8601827,"1124 Clark St SW, Covington, GA 30014, USA"
cumming,georgia,34.2073196,-84.14019259999999,"20 Tribble Gap Rd, Cumming, GA 30040, USA"
dalton,georgia,34.7698021,-84.9702228,"209 W Cuyler St, Dalton, GA 30720, USA"
decatur,georgia,33.7748275,-84.2963123,"Not available, Decatur, GA 30030, United States"
douglas,georgia,31.5088073,-82.8498654,"108 E Ward St, Douglas, GA 31533, USA"
douglasville,georgia,33.7514966,-84.7477136,"12333 GA-8, Douglasville, GA 30134, USA"
dublin,georgia,32.5404447,-82.90375399999999,"101 N Jefferson St, Dublin, GA 31021, USA"
duluth,georgia,34.0028786,-84.1446376,"3100 Main St, Duluth, GA 30096, USA"
fairburn,georgia,33.5670562,-84.5810418,"7 SW Broad St, Fairburn, GA 30213, USA"
fayetteville,georgia,33.4487257,-84.4549262,"150 E Lanier Ave, Fayetteville, GA 30214, USA"
flowery branch,georgia,34.1851017,-83.9251809,"5298 Railroad Ave, Flowery Branch, GA 30542, USA"
forest park,georgia,33.6220542,-84.36909179999999,"4873 West St, Forest Park, GA 30297, USA"
griffin,georgia,33.2467807,-84.2640904,"106 W Taylor St, Griffin, GA 30223, USA"
hampton,georgia,33.3870578,-84.2829784,"24 E Main St N, Hampton, GA 30228, USA"
hephzibah,georgia,33.3140311,-82.0967857,"4400 Brothersville Rd, Hephzibah, GA 30815, USA"
hinesville,georgia,31.846877,-81.5959453,"2 to 9 General scener way 8 H2, Hinesville, GA 31313, United States"
hiram,georgia,33.8756601,-84.7621592,"37 Beatty St, Hiram, GA 30141, USA"
jackson,georgia,33.2945651,-83.96602089999999,"2 S Mulberry St, Jackson, GA 30233, USA"
jasper,georgia,34.4695524,-84.4289888,"27 Burnt Mountain Rd, Big Canoe, GA 30143, USA"
jesup,georgia,31.6074365,-81.8853924,"300-326 GA-27, Jesup, GA 31545, USA"
jonesboro,georgia,33.5215013,-84.3538128,"102 N McDonough St, Jonesboro, GA 30236, USA"
kingsland,georgia,30.7999563,-81.68982609999999,"103 N Lee St, Kingsland, GA 31548, USA"
lagrange,georgia,33.0362218,-85.0322444,"214 Bull St, LaGrange, GA 30240, USA"
lilburn,georgia,33.8901036,-84.14297189999999,"285 Main St NW, Lilburn, GA 30047, USA"
lithonia,georgia,33.7123305,-84.1051939,"7278 Conyers St, Lithonia, GA 30058, USA"
marietta,georgia,33.95260200000001,-84.5499327,"99 S Park Square NE, Marietta, GA 30060, USA"
milledgeville,georgia,33.0801429,-83.2320991,"3043 N Columbia St, Milledgeville, GA 31061, USA"
morrow,georgia,33.5831662,-84.33936829999999,"1515 Morrow Rd, Morrow, GA 30260, USA"
moultrie,georgia,31.1799407,-83.7888387,"10 N Main St, Moultrie, GA 31768, USA"
norcross,georgia,33.9412127,-84.2135309,"87 S Peachtree St, Norcross, GA 30071, USA"
peachtree city,georgia,33.3968557,-84.59634319999999,"2703 Col Joe M Jackson Medal of Honor Hwy, Peachtree City, GA 30269, USA"
richmond hill,georgia,31.9382652,-81.3034433,"10770 Ford Ave, Richmond Hill, GA 31324, USA"
riverdale,georgia,33.5726113,-84.4132594,"650-698 Main St, Riverdale, GA 30274, USA"
rossville,georgia,34.9831309,-85.2860676,"303 Chickamauga Ave, Rossville, GA 30741, USA"
roswell,georgia,34.0232431,-84.3615555,"890 Atlanta St, Roswell, GA 30075, USA"
savannah,georgia,32.0808989,-81.091203,"2 Bull St, Savannah, GA 31401, USA"
senoia,georgia,33.3023411,-84.5538165,"87 Main St, Senoia, GA 30276, USA"
statesboro,georgia,32.4487876,-81.7831674,"2 E Main St, Statesboro, GA 30458, USA"
stone mountain,georgia,33.8081608,-84.17019599999999,"5348 E Mountain St, Stone Mountain, GA 30083, USA"
suwanee,georgia,34.0514898,-84.0712997,"561 US-23, Suwanee, GA 30024, USA"
thomaston,georgia,32.8881879,-84.3265854,"106 W Main St, Thomaston, GA 30286, USA"
thomasville,georgia,30.8365815,-83.9787808,"124 W Remington Ave, Thomasville, GA 31792, USA"
tifton,georgia,31.4504629,-83.5084973,"212 5th St E, Tifton, GA 31794, USA"
union city,georgia,33.5870558,-84.5424299,"Bantry Cir, Union City, GA 30291, USA"
valdosta,georgia,30.8327022,-83.2784851,"205 N Ashley St, Valdosta, GA 31601, USA"
warner robins,georgia,32.6130007,-83.624201,"205 S Pleasant Hill Rd, Warner Robins, GA 31088, USA"
watkinsville,georgia,33.8628959,-83.4087708,"24 GA-15, Watkinsville, GA 30677, USA"
waycross,georgia,31.2135511,-82.3540178,"800 Plant Ave, Waycross, GA 31501, USA"
winder,georgia,33.9926097,-83.7201709,"59 N Broad St, Winder, GA 30680, USA"
woodstock,georgia,34.1014873,-84.5193754,"8560 Main St, Woodstock, GA 30188, USA"
algonquin village,illinois,42.1655801,-88.29424929999999,"302 S Main St, Algonquin, IL 60102, USA"
arlington heights village,illinois,42.0883603,-87.98062650000001,"112 E Euclid Ave, Arlington Heights, IL 60004, USA"
barrington hills village,illinois,42.1332808,-88.19741479999999,"333 Old Sutton Rd, Barrington, IL 60010, USA"
barrington village,illinois,42.1539141,-88.1361888,"115 IL-59, Barrington, IL 60010, USA"
bartlett village,illinois,41.9950276,-88.1856301,"112 N Oak Ave, Bartlett, IL 60103, USA"
batavia,illinois,41.8500284,-88.3125738,"317 W Wilson St, Batavia, IL 60510, USA"
buffalo grove village,illinois,42.1662831,-87.9631308,"255 N Bu ffalo Grove Rd unit 4831 IN POSTAL 60089 yH, Buffalo Grove, IL 60089, United States"
calumet city,illinois,41.6155909,-87.5294871,"701 Wentworth Ave, Calumet City, IL 60409, USA"
cary village,illinois,42.21324990000001,-88.24768499999999,"445 Park Ave, Cary, IL 60013, USA"
chatham village,illinois,39.676163,-89.70454389999999,"215 N Main, Chatham, IL 62629, USA"
chicago,illinois,41.8781136,-87.6297982,"55 W Jackson Blvd, Chicago, IL 60604, USA"
chicago heights,illinois,41.506146,-87.6355995,"1350 S Halsted St, Chicago Heights, IL 60411, USA"
cicero town,illinois,41.8455877,-87.7539448,"2504 S Laramie Ave, Cicero, IL 60804, USA"
columbia,illinois,38.44366369999999,-90.2012239,"207 N Main St, Columbia, IL 62236, USA"
danville,illinois,40.124481,-87.6300207,"17 N Vermilion St, Danville, IL 61832, USA"
darien,illinois,41.7483483,-87.9737943,"Modell Funeral Home, 7710 Cass Avenue, Darien, IL 60561, USA"
deerfield village,illinois,42.1711365,-87.8445119,"648 Elder Ln, Deerfield, IL 60015, USA"
downers grove village,illinois,41.8089191,-88.01117459999999,"1022 Ogden Ave, Downers Grove, IL 60515, USA"
elburn village,illinois,41.8922499,-88.47230139999999,"1 S Main St, Elburn, IL 60119, USA"
elk grove village village,illinois,42.0039178,-87.9703461,"1485 Lively Blvd, Elk Grove Village, IL 60007, USA"
elmhurst,illinois,41.8994744,-87.9403418,"107 W Park Ave, Elmhurst, IL 60126, USA"
frankfort square,illinois,41.5189226,-87.8031048,"7723 Jamison Dr, Frankfort, IL 60423, USA"
frankfort village,illinois,41.4958665,-87.84866129999999,"9 W Sauk Trail, Frankfort, IL 60423, USA"
geneseo,illinois,41.4480902,-90.1542848,"425 S Oakwood Ave, Geneseo, IL 61254, USA"
geneva,illinois,41.8875281,-88.3053525,"102 W State St, Geneva, IL 60134, USA"
glen carbon village,illinois,38.7483814,-89.98315799999999,"194 S Main St, Glen Carbon, IL 62034, USA"
glen ellyn village,illinois,41.8775293,-88.0670118,"1984 N Main St, Glen Ellyn, IL 60137, USA"
glenview village,illinois,42.0778065,-87.8223368,"2550 Park Ln, Glenview, IL 60025, USA"
grayslake village,illinois,42.34446639999999,-88.04174599999999,"122 Center St, Grayslake, IL 60030, USA"
harvey,illinois,41.6100344,-87.6467131,"159 E 154th St, Harvey, IL 60426, USA"
highland park,illinois,42.1816918,-87.8003437,"Unnamed Road, Highland Park, IL 60035, United States"
hinsdale village,illinois,41.8008642,-87.9370052,"Hinsdale/Madison, Hinsdale, IL 60521, USA"
homer glen village,illinois,41.6000317,-87.9381112,"159th/Hidden Valley, Homer Glen, IL 60491, USA"
huntley village,illinois,42.1680796,-88.4281415,"11105 IL-47, Huntley, IL 60142, USA"
la grange park village,illinois,41.8347535,-87.86172599999999,"1101 E 31st St, La Grange Park, IL 60526, USA"
la grange village,illinois,41.8050314,-87.8692254,"La Grange/47th, La Grange, IL 60525, USA"
lake forest,illinois,42.2586342,-87.840625,"1050 Griffith Rd, Lake Forest, IL 60045, USA"
lake zurich village,illinois,42.19696889999999,-88.0934108,"4 W Main St, Lake Zurich, IL 60047, USA"
lemont village,illinois,41.673642,-88.0017261,"204 Main St, Lemont, IL 60439, USA"
libertyville village,illinois,42.2830786,-87.9531303,"100N E Park Ave, Libertyville, IL 60048, USA"
lincoln,illinois,40.1483768,-89.3648183,"410 Broadway St, Lincoln, IL 62656, USA"
lincolnwood village,illinois,42.0044757,-87.73005940000002,"Lincoln/Pratt, Lincolnwood, IL 60712, USA"
lisle village,illinois,41.801141,-88.0747875,"Ogden/Main, Lisle, IL 60532, USA"
mahomet village,illinois,40.1953106,-88.40422339999999,"101 S Lincoln St, Mahomet, IL 61853, USA"
matteson village,illinois,41.5039235,-87.71310179999999,"3938 212th Pl, Matteson, IL 60443, USA"
maywood village,illinois,41.8791979,-87.8431155,"901 S 9th Ave, Maywood, IL 60153, USA"
mokena village,illinois,41.5261437,-87.8892189,"20003 Wolf Rd, Mokena, IL 60448, USA"
morton grove village,illinois,42.0405852,-87.78256209999999,"6225 Dempster Street, Morton Grove, IL 60053, USA"
morton village,illinois,40.6128161,-89.45926089999999,"404 N Main St, Morton, IL 61550, USA"
mount prospect village,illinois,42.0664167,-87.9372908,"Mont, Mt Prospect, IL 60056, United States"
naperville,illinois,41.7508391,-88.1535352,"1052 Alder Ln, Naperville, IL 60540, USA"
new lenox village,illinois,41.5119761,-87.9656098,"102 S Cedar Rd, New Lenox, IL 60451, USA"
northbrook village,illinois,42.1275267,-87.82895479999999,"1345 1st St, Northbrook, IL 60062, USA"
oak brook village,illinois,41.8397865,-87.95355339999999,"1399 Kensington Rd, Oak Brook, IL 60523, USA"
orland park village,illinois,41.6303103,-87.85394250000002,"14300 96th Ave, Orland Park, IL 60462, USA"
palos heights,illinois,41.6680885,-87.7964416,"7152-7198 W 123rd St, Palos Heights, IL 60463, USA"
park forest village,illinois,41.4914236,-87.6744891,"2599 Western Ave, Park Forest, IL 60466, USA"
park ridge,illinois,42.0111412,-87.84061919999999,"9 S Greenwood Ave, Park Ridge, IL 60068, USA"
river forest village,illinois,41.8939617,-87.81984779999999,"753 Park Ave, River Forest, IL 60305, USA"
riverdale village,illinois,41.63336779999999,-87.6331021,"452 W 144th St, Riverdale, IL 60827, USA"
shorewood village,illinois,41.5200305,-88.2017293,"120 Picnic St, Shorewood, IL 60404, USA"
south holland village,illinois,41.6008681,-87.60698939999999,"439 E 162nd St, South Holland, IL 60473, USA"
vernon hills village,illinois,42.23933230000001,-87.9653565,"10 W Phillip Rd, Vernon Hills, IL 60061, USA"
washington,illinois,40.7036482,-89.4073123,"110 N Main St, Washington, IL 61571, USA"
waterloo,illinois,38.3358857,-90.14983409999999,"100 S Main St, Waterloo, IL 62298, USA"
waukegan,illinois,42.3636331,-87.84479379999999,"Jackson/Oak Crest, Waukegan, IL 60085, USA"
western springs village,illinois,41.8097532,-87.9006155,"914 Hillgrove Ave, Western Springs, IL 60558, USA"
wheaton,illinois,41.8661403,-88.1070127,"140 N Main St, Wheaton, IL 60187, USA"
willowbrook,illinois,41.7697533,-87.9358931,"525-501 Ridgemoor Dr, Willowbrook, IL 60527, USA"
wilmette village,illinois,42.0722513,-87.7228384,"1900 Wilmette Ave, Wilmette, IL 60091, USA"
winfield village,illinois,41.8616956,-88.1609031,"0S024 E Street, Winfield, IL 60190, United States"
winnetka village,illinois,42.10808340000001,-87.735895,"606 Green Bay Rd, Winnetka, IL 60093, USA"
zion,illinois,42.4461322,-87.83285049999999,"Shiloh Park, 1619 27th St, Zion, IL 60099, USA"
anderson,indiana,40.1053196,-85.6802541,"30 W 11th St, Anderson, IN 46016, USA"
carmel,indiana,39.978371,-86.1180435,"599 E Main St, Carmel, IN 46032, USA"
dyer town,indiana,41.4942021,-87.52170679999999,"201 Joliet St, Dyer, IN 46311, USA"
east chicago,indiana,41.63920239999999,-87.4547635,"1318 E Columbus Dr, East Chicago, IN 46312, USA"
fishers town,indiana,39.9567548,-86.01335,"8787 E 116th St, Fishers, IN 46038, USA"
fort wayne,indiana,41.079273,-85.1393513,"803 S Calhoun St, Fort Wayne, IN 46802, USA"
gary,indiana,41.6020403,-87.3371523,"10 E 5th Ave, Gary, IN 46402, USA"
hammond,indiana,41.5833688,-87.5000412,"7141 Columbia Ave, Hammond, IN 46324, USA"
indianapolis,indiana,39.768403,-86.158068,"Intl Airport - Zone 1 Ground Transportation Center, Indianapolis, IN 46204, USA"
jasper,indiana,38.3914418,-86.9311094,"103 W 6th St, Jasper, IN 47546, USA"
jeffersonville,indiana,38.2775702,-85.7371847,"501 E Court Ave, Jeffersonville, IN 47130, USA"
merrillville town,indiana,41.4828144,-87.33281389999999,"25 Indian Trail, Merrillville, IN 46410, USA"
munster town,indiana,41.5644798,-87.5125412,"8205 Monroe Ave, Munster, IN 46321, USA"
north vernon,indiana,39.006165,-85.6235796,"ETC -1200 O&M Ave, North Vernon, IN 47265, United States"
westfield town,indiana,40.0428151,-86.1274888,"100 N Union St, Westfield, IN 46074, USA"
zionsville town,indiana,39.9508733,-86.261937,"76 S Main St, Zionsville, IN 46077, USA"
adel,iowa,41.6144325,-94.017453,"312 Nile Kinnick Dr S, Adel, IA 50003, USA"
albia,iowa,41.0300078,-92.811307,"219 B Ave W, Albia, IA 52531, USA"
algona,iowa,43.0699663,-94.233019,"415 E Call St, Algona, IA 50511, USA"
altoona,iowa,41.6435514,-93.47508359999999,"818 8th St SW, Altoona, IA 50009, USA"
ames,iowa,42.0307812,-93.63191309999999,"Brookside Park, 1325 6th St, Ames, IA 50010, USA"
anamosa,iowa,42.1083371,-91.28515940000001,"108 E Main St, Anamosa, IA 52205, USA"
ankeny,iowa,41.7317884,-93.6001278,"101 S Ankeny Blvd, Ankeny, IA 50023, USA"
atlantic,iowa,41.4036007,-95.0138776,"5 W 7th St, Atlantic, IA 50022, USA"
audubon,iowa,41.7180421,-94.93248679999999,"508 Market St, Audubon, IA 50025, USA"
belmond,iowa,42.84608,-93.61409909999999,"303 E Main St, Belmond, IA 50421, USA"
bettendorf,iowa,41.5262641,-90.50725729999999,"18 St & Grant St, Bettendorf, IA 52722, USA"
bloomfield,iowa,40.75168840000001,-92.41490739999999,"100 Courthouse Sq # 1, Bloomfield, IA 52537, Bloomfield, IA 52537, United States"
blue grass,iowa,41.5089194,-90.7659767,"101 W Mayne St, Blue Grass, IA 52726, USA"
boone,iowa,42.0597047,-93.8802273,"379 Story St, Boone, IA 50036, USA"
buffalo,iowa,41.4555873,-90.72097459999999,"326 Front St, Buffalo, IA 52728, USA"
burlington,iowa,40.8076529,-91.1128901,"1000-1098 Division St, Burlington, IA 52601, USA"
camanche,iowa,41.7853085,-90.2529064,"712 6th St, Camanche, IA 52730, USA"
carlisle,iowa,41.4986013,-93.4835466,"3 1/2 School St, Carlisle, IA 50047, USA"
carroll,iowa,42.0655986,-94.86727929999999,"529 N Main St, Carroll, IA 51401, USA"
carter lake,iowa,41.29055340000001,-95.9180689,"909 Willow Dr, Carter Lake, IA 51510, USA"
cedar falls,iowa,42.5348993,-92.4453161,"406 Main St, Cedar Falls, IA 50613, USA"
cedar rapids,iowa,41.9778795,-91.6656232,"310 3rd Ave SE, Cedar Rapids, IA 52401, USA"
centerville,iowa,40.7290565,-92.8738196,"603 S Main St, Centerville, IA 52544, USA"
chariton,iowa,41.0199996,-93.31409850000001,"1316 Commercial Ave, Chariton, IA 50049, USA"
charles city,iowa,43.0663612,-92.6724112,"105 Milwaukee St, Charles City, IA 50616, USA"
cherokee,iowa,42.7496413,-95.55154309999999,"107 S 2nd St, Cherokee, IA 51012, USA"
clarinda,iowa,40.7419352,-95.038313,"410 N 16th St, Clarinda, IA 51632, USA"
clarion,iowa,42.7316387,-93.732992,"100 S Main St, Clarion, IA 50525, USA"
clear lake,iowa,43.1435564,-93.3788108,"908 N 8th St, Clear Lake, IA 50428, USA"
clinton,iowa,41.8444735,-90.1887379,"221 2nd Ave S, Clinton, IA 52732, USA"
clive,iowa,41.6060873,-93.77235999999999,"1538 Campus Dr, Clive, IA 50325, USA"
colfax,iowa,41.67707619999999,-93.2451249,"1, Colfax, IA 50054, United States"
coralville,iowa,41.6822756,-91.5960643,"800 22nd Ave, Coralville, IA 52241, USA"
council bluffs,iowa,41.2619444,-95.8608333,"1146-1198, US-6, Council Bluffs, IA 51501, United States"
cresco,iowa,43.3813568,-92.1140547,"757 N Elm St, Cresco, IA 52136, USA"
creston,iowa,41.0586002,-94.3613474,"101 E Montgomery St, Creston, IA 50801, USA"
davenport,iowa,41.5236437,-90.5776367,"416 N Harrison St, Davenport, IA 52801, USA"
de witt,iowa,41.8239952,-90.53896619999999,"827 6th Ave, DeWitt, IA 52742, USA"
decorah,iowa,43.30330559999999,-91.7857092,"118 Washington St, Decorah, IA 52101, USA"
denison,iowa,42.024988,-95.3588867,"1014 Oakwood Dr, Denison, IA 51442, USA"
des moines,iowa,41.5868353,-93.6249593,"Equitable Building, 604 Locust St, Des Moines, IA 50309, USA"
dubuque,iowa,42.5005583,-90.66457179999999,"698 Central Ave, Dubuque, IA 52001, USA"
dyersville,iowa,42.4836415,-91.1140899,"902 2nd Ave SE, Dyersville, IA 52040, USA"
eagle grove,iowa,42.6641396,-93.9044473,"223 W Broadway St, Eagle Grove, IA 50533, USA"
eldridge,iowa,41.65808639999999,-90.5845822,"310 N 2nd St, Eldridge, IA 52748, USA"
emmetsburg,iowa,43.1127427,-94.68303569999999,"801 Lawler St, Emmetsburg, IA 50536, USA"
estherville,iowa,43.4013478,-94.8391532,"308 Central Avenue, Estherville, IA 51334, USA"
evansdale,iowa,42.4691543,-92.281017,"462 Grand Blvd, Evansdale, IA 50707, USA"
fairfield,iowa,41.00761139999999,-91.9636914,"302 1/2 E Broadway Ave, Fairfield, IA 52556, USA"
forest city,iowa,43.2624685,-93.6371937,"145 S 4th St, Forest City, IA 50436, USA"
fort dodge,iowa,42.4974694,-94.16801579999999,"802 S 22nd St, Fort Dodge, IA 50501, USA"
fort madison,iowa,40.6297634,-91.31453499999999,"712 9th St, Fort Madison, IA 52627, USA"
garner,iowa,43.1023343,-93.6020858,"2525 Taft Ave, Garner, IA 50438, USA"
glenwood,iowa,41.0469437,-95.7425056,"418 E Sharp St, Glenwood, IA 51534, USA"
grinnell,iowa,41.74340919999999,-92.7232456,"210 4th Ave Ahrens Medical Arts Building, 2nd Floor, Grinnell, IA 50112, United States"
grundy center,iowa,42.3616501,-92.7685327,"401 G Ave, Grundy Center, IA 50638, USA"
hampton,iowa,42.7425009,-93.21034019999999,"212 1st Ave NW, Hampton, IA 50441, USA"
harlan,iowa,41.653044,-95.32555409999999,"1603 12th St, Harlan, IA 51537, USA"
hawarden,iowa,42.9963772,-96.4891976,"414 10th St, Hawarden, IA 51023, USA"
hiawatha,iowa,42.0491958,-91.6815252,"1125 Dina Ct, Hiawatha, IA 52233, USA"
humboldt,iowa,42.7208047,-94.2152402,"11 timber rdg, Humboldt, IA 50548, USA"
independence,iowa,42.4685978,-91.8893386,"520 1st St E, Independence, IA 50644, USA"
indianola,iowa,41.3580484,-93.5574376,"311 E 2nd Ave, Indianola, IA 50125, USA"
iowa city,iowa,41.6611277,-91.5301683,"10 S Gilbert St, Iowa City, IA 52240, USA"
iowa falls,iowa,42.51988679999999,-93.26457409999999,"606 Washington Ave, Iowa Falls, IA 50126, USA"
jefferson,iowa,42.0172457,-94.3774232,"303 N Elm St, Jefferson, IA 50129, USA"
johnston,iowa,41.6709834,-93.7130493,"6750 Pioneer Pkwy, Johnston, IA 50131, USA"
keokuk,iowa,40.4044731,-91.3963966,"211 S 18th St, Keokuk, IA 52632, USA"
lake city,iowa,42.2674828,-94.7338704,"101 N Center St, Lake City, IA 51449, USA"
lansing,iowa,43.3609053,-91.218768,"400 Center St, Lansing, IA 52151, USA"
le claire,iowa,41.5975061,-90.3462215,"226 Wisconsin St, Le Claire, IA 52753, USA"
le mars,iowa,42.79415669999999,-96.1655778,"43 1st Ave NE, Le Mars, IA 51031, USA"
leon,iowa,40.739724,-93.7477217,"20451 262nd Ave, Leon, IA 50144, United States"
lisbon,iowa,41.9211198,-91.3854466,"101 E Main St, Lisbon, IA 52253, USA"
manchester,iowa,42.4857853,-91.4579698,"605 N New St, Manchester, IA 52057, USA"
maquoketa,iowa,42.0689088,-90.6656914,"110 S Main St, Maquoketa, IA 52060, USA"
marengo,iowa,41.7927817,-92.0696253,"131 E Miller St, Marengo, IA 52301, USA"
marion,iowa,42.033279,-91.5968958,"1129 US-151 BUS, Marion, IA 52302, USA"
marshalltown,iowa,42.0494674,-92.90803749999999,"4 N 3rd Ave, Marshalltown, IA 50158, USA"
mason city,iowa,43.1535728,-93.20103669999999,"124 N Federal Ave, Mason City, IA 50401, USA"
missouri valley,iowa,41.5563713,-95.8877767,"118 S 6th St, Missouri Valley, IA 51555, USA"
monticello,iowa,42.23833510000001,-91.18709369999999,"301 E 1st St, Monticello, IA 52310, USA"
mount pleasant,iowa,40.9716959,-91.54877139999999,"500 N Lincoln St, Mt Pleasant, IA 52641, USA"
mount vernon,iowa,41.9219522,-91.4168371,"108 1st St E, Mt Vernon, IA 52314, USA"
muscatine,iowa,41.424473,-91.0432051,"401 E 3rd St, Muscatine, IA 52761, USA"
nevada,iowa,42.0227184,-93.4523014,"Lincoln Highway &, 6th St, Nevada, IA 50201, USA"
new hampton,iowa,43.0592724,-92.317864,"200 W Main St, New Hampton, IA 50659, USA"
newton,iowa,41.7033177,-93.05735330000002,"420 W 4th St N, Newton, IA 50208, USA"
north liberty,iowa,41.739482,-91.60809739999999,"465 Hwy 965, North Liberty, IA 52317, USA"
norwalk,iowa,41.47554600000001,-93.6788304,"1099-801 Main St, Norwalk, IA 50211, USA"
oelwein,iowa,42.6784949,-91.91195859999999,"25 E Charles St, Oelwein, IA 50662, USA"
ogden,iowa,42.0395595,-94.0320167,"341 W Walnut St, Ogden, IA 50212, USA"
onawa,iowa,42.0266548,-96.0972376,"1013 10th St, Onawa, IA 51040, USA"
orange city,iowa,43.0072087,-96.0583523,"122 Central Ave NW, Orange City, IA 51041, USA"
osage,iowa,43.2841382,-92.8190838,"205 Main St, Osage, IA 50461, USA"
osceola,iowa,41.0342618,-93.766759,"100 S Main St, Osceola, IA 50213, USA"
oskaloosa,iowa,41.2916728,-92.6493595,"412 4th Ave W, Oskaloosa, IA 52577, USA"
ottumwa,iowa,41.01602930000001,-92.40830220000001,"347 2nd St E, Ottumwa, IA 52501, USA"
pella,iowa,41.4080327,-92.91640500000001,"836 Main St, Pella, IA 50219, USA"
perry,iowa,41.8385964,-94.10717969999999,"1918 Willis Ave, Perry, IA 50220, USA"
pleasant hill,iowa,41.5873903,-93.5196138,"4801 E Oakwood Dr, Pleasant Hill, IA 50327, USA"
polk city,iowa,41.7713764,-93.7129997,"113 W Broadway St, Polk City, IA 50226, USA"
postville,iowa,43.084702,-91.5682015,"1245, Postville, IA 52162, USA"
prairie city,iowa,41.599434,-93.23520529999999,"200 Marshall St N, Prairie City, IA 50228, USA"
red oak,iowa,41.0170937,-95.2214477,"909 Chautauqua Dr, Red Oak, IA 51566, USA"
rock valley,iowa,43.2052594,-96.2950263,"1501 Main St, Rock Valley, IA 51247, USA"
sac city,iowa,42.42220330000001,-94.9897109,"500 W Main St, Sac City, IA 50583, USA"
sergeant bluff,iowa,42.40298019999999,-96.3588424,"305 E St, Sergeant Bluff, IA 51054, USA"
sheldon,iowa,43.1812107,-95.8569539,"5321 W 9th St, Sheldon, IA 51201, USA"
shenandoah,iowa,40.7667389,-95.3761506,"101 N Railroad St, Shenandoah, IA 51601, USA"
sigourney,iowa,41.3333445,-92.20462549999999,"101 S Main St, Sigourney, IA 52591, USA"
sioux center,iowa,43.0797991,-96.1756935,"958 N Main Ave, Sioux Center, IA 51250, USA"
sioux city,iowa,42.4963416,-96.40494079999999,"600 Pierce St, Sioux City, IA 51101, USA"
spencer,iowa,43.1450748,-95.144318,"717 Grand Ave, Spencer, IA 51301, USA"
spirit lake,iowa,43.4226192,-95.1022313,"1723 Hill Ave, Spirit Lake, IA 51360, USA"
state center,iowa,42.0166544,-93.16353649999999,"100-198 E Main St, State Center, IA 50247, USA"
storm lake,iowa,42.6430359,-95.2019399,"104 W Railroad St, Storm Lake, IA 50588, USA"
story city,iowa,42.1871601,-93.5955532,"603 Broad St, Story City, IA 50248, USA"
tama,iowa,41.9627392,-92.576753,"419 State St, Tama, IA 52339, USA"
tipton,iowa,41.7697434,-91.1279349,"400 Cedar St, Tipton, IA 52772, USA"
toledo,iowa,41.9972134,-92.5835266,"108 S West St, Toledo, IA 52342, USA"
urbandale,iowa,41.6266555,-93.71216559999999,"3411 70th St, Urbandale, IA 50322, USA"
vinton,iowa,42.1646477,-92.01856509999999,"503 E 8th St, Vinton, IA 52349, USA"
walcott,iowa,41.585543,-90.7743819,"103 S Main St, Walcott, IA 52773, USA"
washington,iowa,41.30140770000001,-91.69164169999999,"116 E 3rd St, Washington, IA 52353, USA"
waterloo,iowa,42.492786,-92.34257749999999,"503 W 4th St, Waterloo, IA 50701, USA"
waukee,iowa,41.6119903,-93.8855768,"243-299 6th St, Waukee, IA 50263, USA"
waukon,iowa,43.2694208,-91.47569500000002,"3 W Main St, Waukon, IA 52172, USA"
waverly,iowa,42.7272032,-92.4668511,"303 1st Ave NE, Waverly, IA 50677, USA"
webster city,iowa,42.4694321,-93.8159149,"401 2nd St, Webster City, IA 50595, USA"
west branch,iowa,41.6714086,-91.3465521,"109 W Main St, West Branch, IA 52358, USA"
west burlington,iowa,40.8250386,-91.15653569999999,"122 Broadway St, West Burlington, IA 52655, USA"
west des moines,iowa,41.5638902,-93.75938409999999,"4200 Mills Civic Pkwy, West Des Moines, IA 50265, USA"
west liberty,iowa,41.5700231,-91.2637695,"105 W 3rd St, West Liberty, IA 52776, USA"
williamsburg,iowa,41.6611187,-92.0090673,"500-598 Court St, Williamsburg, IA 52361, USA"
wilton,iowa,41.5889154,-91.01681789999999,"101 W 4th St, Wilton, IA 52778, USA"
windsor heights,iowa,41.6038268,-93.71051179999999,"6709 Forest Ct, Windsor Heights, IA 50324, USA"
winterset,iowa,41.3308237,-94.0138393,"60 E Grade St, Winterset, IA 50273, USA"
abilene,kansas,38.9172216,-97.2139094,"210 N Buckeye Ave, Abilene, KS 67410, USA"
anthony,kansas,37.1533554,-98.0311727,"121 W Steadman St, Anthony, KS 67003, USA"
augusta,kansas,37.6866844,-96.9767023,"1201 Osage St, Augusta, KS 67010, USA"
basehor,kansas,39.1416692,-94.9385762,"2948 155th St, Basehor, KS 66007, USA"
belleville,kansas,39.8244501,-97.6325415,"1119 18th St, Belleville, KS 66935, USA"
beloit,kansas,39.45611780000001,-98.10615949999999,"400 River St, Beloit, KS 67420, USA"
benton,kansas,37.7889039,-97.1086498,"111 S Main St, Benton, KS 67017, USA"
burlington,kansas,38.1944667,-95.74276410000002,"626 Neosho St, Burlington, KS 66839, USA"
clay center,kansas,39.3769407,-97.12474279999999,"608 Court St, Clay Center, KS 67432, USA"
clearwater,kansas,37.5027959,-97.504492,"150 Lee Ave, Clearwater, KS 67026, USA"
colby,kansas,39.3958369,-101.0523773,"320 N Grant Ave, Colby, KS 67701, USA"
columbus,kansas,37.1692278,-94.8441239,"223 S Pennsylvania Ave, Columbus, KS 66725, USA"
colwich,kansas,37.7791785,-97.5364351,"104 Chicago Ave, Colwich, KS 67030, USA"
conway springs,kansas,37.3902975,-97.6422723,"124 E Spring Ave, Conway Springs, KS 67031, USA"
council grove,kansas,38.6611187,-96.49194729999999,"28 N Mission St, Council Grove, KS 66846, USA"
derby,kansas,37.5455735,-97.2689331,"P.O. Box 97, Derby, KS 67037, United States"
ellinwood,kansas,38.3555675,-98.5809106,"112 N Main St, Ellinwood, KS 67526, USA"
ellis,kansas,38.9380662,-99.56066690000002,"912 Washington St, Ellis, KS 67637, USA"
ellsworth,kansas,38.7305648,-98.22811259999999,"408 N Lincoln Ave, Ellsworth, KS 67439, USA"
eudora,kansas,38.9433372,-95.09858070000001,"900 Blk Main St, Eudora, KS 66025, USA"
fredonia,kansas,37.5339386,-95.8266483,"421 N 7th St, Fredonia, KS 66736, USA"
gardner,kansas,38.8108408,-94.9271868,"On Center at Main Northbound Nearside, Gardner, KS 66030, USA"
garnett,kansas,38.2805772,-95.24191920000001,"411 S Oak St, Garnett, KS 66032, USA"
girard,kansas,37.5111596,-94.8380215,"402 E Forest Ave, Girard, KS 66743, USA"
goddard,kansas,37.6597363,-97.5753256,"319 N Main St, Goddard, KS 67052, USA"
halstead,kansas,38.0014004,-97.5086518,"220 W 5th St, Halstead, KS 67056, USA"
haven,kansas,37.8989003,-97.7828272,"209 S Kansas Ave, Haven, KS 67543, USA"
herington,kansas,38.671119,-96.9425139,"17 E Main St, Herington, KS 67449, USA"
hesston,kansas,38.1383437,-97.43142669999999,"100 N Main St, Hesston, KS 67062, USA"
hiawatha,kansas,39.8525033,-95.53581559999999,"PO Box 295, Hiawatha, KS 66434, United States"
hillsboro,kansas,38.3519555,-97.20447229999999,"202 S Main St, Hillsboro, KS 67063, USA"
holcomb,kansas,37.9861353,-100.989333,"100 N Henderson St, Holcomb, KS 67851, USA"
holton,kansas,39.4652724,-95.7363723,"208 W 5th St, Holton, KS 66436, USA"
inman,kansas,38.2319537,-97.77338089999999,"217 E Center St, Inman, KS 67546, USA"
junction city,kansas,39.0286093,-96.83139779999999,"138 W 6th St, Junction City, KS 66441, USA"
kansas city,kansas,39.11553139999999,-94.62678729999999,"On Minnesota Ave at 7th Street WB, Kansas City, KS 66101, USA"
kingman,kansas,37.6458491,-98.1136734,"425 N Main St, Kingman, KS 67068, USA"
lansing,kansas,39.2486126,-94.90024129999999,"112 S Main St, Lansing, KS 66043, USA"
lenexa,kansas,38.9536174,-94.73357089999999,"9620 Rosehill Rd, Lenexa, KS 66215, USA"
liberal,kansas,37.0430812,-100.920999,"25 E 5th St, Liberal, KS 67901, USA"
lindsborg,kansas,38.5736176,-97.67448379999999,"125 E Lincoln St, Lindsborg, KS 67456, USA"
maize,kansas,37.7791787,-97.46726740000001,"221 N Queen St, Maize, KS 67101, USA"
marion,kansas,38.3483493,-97.017245,"500 E Main St, Marion, KS 66861, USA"
marysville,kansas,39.8411129,-96.64724199999999,"109 S 9th St, Marysville, KS 66508, USA"
mcpherson,kansas,38.3708415,-97.66420869999999,"211 N Elm St, McPherson, KS 67460, USA"
meade,kansas,37.2855796,-100.3401456,"54 E Carthage St, Meade, KS 67864, USA"
minneapolis,kansas,39.1219448,-97.7067028,"703 A West Industrial Rd, Minneapolis, KS 67467, United States"
mission,kansas,39.0277832,-94.6557914,"6100 W 56th St, Mission, KS 66202, USA"
mulvane,kansas,37.474464,-97.2439325,"Unnamed Road, Mulvane, KS 67110, United States"
newton,kansas,38.0466779,-97.34503649999999,"413 N Main St, Newton, KS 67114, USA"
norton,kansas,39.8338946,-99.89151129999999,"307 W Wilton St, Norton, KS 67654, USA"
oakley,kansas,39.1270975,-100.8479688,"229 Price Ave, Oakley, KS 67748, USA"
oberlin,kansas,39.81833839999999,-100.528201,"218 S Griffith Ave, Oberlin, KS 67749, USA"
olathe,kansas,38.8813958,-94.81912849999999,"126 S Cherry St, Olathe, KS 66061, USA"
osage city,kansas,38.6338981,-95.82582070000001,"101-199 S 6th St, Osage City, KS 66523, USA"
oskaloosa,kansas,39.215277,-95.31274979999999,"209 Jefferson St, Oskaloosa, KS 66066, USA"
overland park,kansas,38.9822282,-94.6707917,"7319 W 81st St, Overland Park, KS 66204, USA"
ozawkie,kansas,39.2333317,-95.4669194,"404 Sioux Dr, Ozawkie, KS 66070, USA"
paola,kansas,38.5722353,-94.8791294,"14 S Silver St, Paola, KS 66071, USA"
perry,kansas,39.0758335,-95.3933077,"204 E 3rd St, Perry, KS 66073, USA"
plainville,kansas,39.2347323,-99.2981556,"102 N Washington St, Plainville, KS 67663, USA"
prairie village,kansas,38.9916726,-94.6335684,"7500 Mission Rd, Prairie Village, KS 66208, USA"
pratt,kansas,37.6439071,-98.73759109999999,"212 E 3rd St, Pratt, KS 67124, USA"
rose hill,kansas,37.5583517,-97.1350405,"202 S Rose Hill Rd, Rose Hill, KS 67133, USA"
sabetha,kansas,39.9022223,-95.80082250000001,"823 Virginia St, Sabetha, KS 66534, USA"
scott city,kansas,38.4825192,-100.9070949,"425 Main St, Scott City, KS 67871, USA"
sedgwick,kansas,37.9166784,-97.422541,"418 N Washington Ave, Sedgwick, KS 67135, USA"
seneca,kansas,39.834165,-96.06416759999999,"532 Main St, Seneca, KS 66538, USA"
sterling,kansas,38.2100111,-98.20700590000001,"101 S Broadway Ave, Sterling, KS 67579, USA"
tonganoxie,kansas,39.109724,-95.0877465,"427 E 4th St, Tonganoxie, KS 66086, USA"
valley center,kansas,37.8347342,-97.3733759,"231 N Park Ave, Valley Center, KS 67147, USA"
valley falls,kansas,39.3433316,-95.460253,"601 Elm St, Valley Falls, KS 66088, USA"
wamego,kansas,39.2019412,-96.3049975,"430 KS-99, Wamego, KS 66547, USA"
wellsville,kansas,38.7183422,-95.0816354,"601 Main St, Wellsville, KS 66092, USA"
wichita,kansas,37.68717609999999,-97.33005299999999,"128 N Santa Fe St, Wichita, KS 67202, USA"
winfield,kansas,37.2397486,-96.9955918,"205 E 9th Ave, Winfield, KS 67156, USA"
yates center,kansas,37.8811472,-95.7333175,"118 W Rutledge St, Yates Center, KS 66783, USA"
alexandria,kentucky,38.9595078,-84.3879946,"8321 E Main St, Alexandria, KY 41001, USA"
benton,kentucky,36.85727809999999,-88.350315,"1101 Main St, Benton, KY 42025, USA"
corbin,kentucky,36.9486986,-84.0968761,"1708 Forest Dr Suites 102 & 1031, Corbin, KY 40701, United States"
covington,kentucky,39.0836712,-84.5085536,"3rd floor, 230 Madison Ave, Covington, KY 41011, United States"
fort thomas,kentucky,39.07506070000001,-84.4471633,"310 S Ft Thomas Ave, Fort Thomas, KY 41075, USA"
hopkinsville,kentucky,36.8656008,-87.4886186,"104 E 9th St, Hopkinsville, KY 42240, USA"
independence,kentucky,38.94311829999999,-84.54410899999999,"5278 Madison Pike, Independence, KY 41051, USA"
la grange,kentucky,38.4075666,-85.37884679999999,"100 E Main St, La Grange, KY 40031, USA"
lexington-fayette urban county,kentucky,38.0405837,-84.5037164,"404 S Limestone, Lexington, KY 40508, USA"
mount washington,kentucky,38.0500627,-85.54578769999999,"350 N Bardstown Rd, Mt Washington, KY 40047, USA"
prospect,kentucky,38.345068,-85.615517,"US 42 @ Prospect Point, Prospect, KY 40059, USA"
radcliff,kentucky,37.8403456,-85.9491298,"624 Elm Rd, Radcliff, KY 40160, USA"
uniontown,kentucky,37.7753214,-87.93058270000002,"235 Division St, Uniontown, KY 42461, USA"
versailles,kentucky,38.05257599999999,-84.7299464,"106 S Main St, Versailles, KY 40383, USA"
alexandria,louisiana,31.3112936,-92.4451371,"934 3rd St, Alexandria, LA 71301, USA"
bastrop,louisiana,32.7562463,-91.8723497,"6, LA 71220, USA"
baton rouge,louisiana,30.4514677,-91.18714659999999,"401 Main St, Baton Rouge, LA 70802, USA"
covington,louisiana,30.4754702,-90.1009108,"104 W 21st Ave, Covington, LA 70433, USA"
gretna,louisiana,29.9146493,-90.0539603,"1011 Richard St, Gretna, LA 70053, USA"
hammond,louisiana,30.5043583,-90.46119949999999,"100 NW Railroad Ave, Hammond, LA 70401, USA"
houma,louisiana,29.5957696,-90.71953479999999,"402 Barrow St, Houma, LA 70360, USA"
lake charles,louisiana,30.2265949,-93.2173758,"949 Ryan St, Lake Charles, LA 70601, USA"
leesville,louisiana,31.1435194,-93.260998,"Retail Investors of Texas Ltd, 8 Shreveport Hwy, Leesville, LA 71446, United States"
mandeville,louisiana,30.35825059999999,-90.06563109999999,"2016 Monroe St, Mandeville, LA 70448, USA"
monroe,louisiana,32.5093109,-92.1193012,"364-596 Louisville Ave, Monroe, LA 71201, USA"
morgan city,louisiana,29.6993748,-91.20676999999999,"500 Brashear Ave, Morgan City, LA 70380, USA"
natchitoches,louisiana,31.7607195,-93.08627489999999,"584 Front St, Natchitoches, LA 71457, USA"
new orleans,louisiana,29.95106579999999,-90.0715323,"339 Carondelet St, New Orleans, LA 70130, USA"
opelousas,louisiana,30.5335302,-92.081509,"115 S Main St, Opelousas, LA 70570, USA"
ruston,louisiana,32.5232053,-92.63792699999999,"601 S Vienna St, Ruston, LA 71270, USA"
shreveport,louisiana,32.5251516,-93.7501789,"4450 Hilry Huckaby III Ave, Shreveport, LA 71107, USA"
westwego,louisiana,29.9060388,-90.14229619999999,"575 Avenue E, Westwego, LA 70094, USA"
youngsville,louisiana,30.0996471,-91.9901206,"202 Lafayette St, Youngsville, LA 70592, USA"
falmouth,maine,43.7435343,-70.2601759,"27 Parker Way, Falmouth, ME 04105, USA"
aberdeen,maryland,39.5095556,-76.16411970000001,"643, Aberdeen, MD 21001, United States"
baltimore,maryland,39.2903848,-76.6121893,"201 E Fayette St, Baltimore, MD 21202, USA"
capitol heights town,maryland,38.8851122,-76.9158068,"2-6 Chamber Ave, Capitol Heights, MD 20743, USA"
chevy chase,maryland,38.9692771,-77.07886669999999,"12 W Irving St, Chevy Chase, MD 20815, USA"
district heights,maryland,38.8576128,-76.8894171,"Gateway Blvd & Breton Dr, District Heights, MD 20747, USA"
greenbelt,maryland,39.0045544,-76.87552819999999,"62 Crescent Rd, Greenbelt, MD 20770, USA"
hyattsville,maryland,38.9559442,-76.9455301,"4202 Kennedy St, Hyattsville, MD 20781, USA"
mount airy town,maryland,39.3762145,-77.154704,"3712 Falling Green Way, Mt Airy, MD 21771, USA"
riverdale park town,maryland,38.963444,-76.9316408,"4807 Ravenswood Rd, Riverdale, MD 20737, USA"
sykesville town,maryland,39.3737149,-76.9677566,"P.O. Box 259, Sykesville, MD 21784, United States"
andover,massachusetts,42.6583356,-71.1367953,"13 Summer St, Andover, MA 01810, USA"
arlington,massachusetts,42.4153925,-71.1564729,"730 Massachusetts Ave, Arlington, MA 02476, USA"
belchertown,massachusetts,42.2770346,-72.4008884,"100 Maple St, Belchertown, MA 01007, USA"
belmont,massachusetts,42.3956405,-71.1776114,"434 Concord Ave, Belmont, MA 02478, USA"
boxford,massachusetts,42.6611604,-70.996726,"14 Elm St, Boxford, MA 01921, USA"
brewster,massachusetts,41.7600902,-70.0827905,"17 Harwich Rd, Brewster, MA 02631, USA"
brockton,massachusetts,42.0834335,-71.0183787,"34 School St, Brockton, MA 02301, USA"
brookline,massachusetts,42.33176419999999,-71.1211635,"61 White Pl, Brookline, MA 02445, USA"
burlington,massachusetts,42.5047161,-71.1956205,"140 Cambridge St, Burlington, MA 01803, USA"
cambridge,massachusetts,42.3736158,-71.10973349999999,"70 Raglan Rd ON, Cambridge, MA 02138, United States"
chatham,massachusetts,41.6820897,-69.95976639999999,"625 Main St, Chatham, MA 02633, USA"
chelsea,massachusetts,42.3917638,-71.0328284,"148 Shawmut St, Chelsea, MA 02150, USA"
dennis,massachusetts,41.7353062,-70.1939429,"515 Main St, Dennis, MA 02638, USA"
dover,massachusetts,42.2458749,-71.2828719,"24 Dedham St, Dover, MA 02030, USA"
duxbury,massachusetts,42.0417525,-70.6722767,"On-Site Computer Services, Duxbury, MA 02332, United States"
easthampton town,massachusetts,42.266757,-72.66897999999999,"15 Liberty St, Easthampton, MA 01027, USA"
falmouth,massachusetts,41.5532208,-70.60858859999999,"Unnamed Road, Falmouth, MA 02540, USA"
foxborough,massachusetts,42.0653812,-71.2478251,"13 Mechanic St, Foxborough, MA 02035, USA"
franklin town,massachusetts,42.0834313,-71.396725,"Franklin, 75 Depot Street, Franklin, MA 02038, USA"
granby,massachusetts,42.2570866,-72.51688589999999,"239 W State St, Granby, MA 01033, USA"
groton,massachusetts,42.6112018,-71.5745152,"248 MA-119, Groton, MA 01450, USA"
hingham,massachusetts,42.2418172,-70.889759,"66 South St, Hingham, MA 02043, USA"
holyoke,massachusetts,42.2042586,-72.6162009,"253 Walnut St, Holyoke, MA 01040, USA"
hopedale,massachusetts,42.1306357,-71.5412077,"45 Hopedale St, Hopedale, MA 01747, USA"
hopkinton,massachusetts,42.22869540000001,-71.5225646,"60 Main St, Hopkinton, MA 01748, USA"
ipswich,massachusetts,42.6791832,-70.8411558,"2 Washington St, Ipswich, MA 01938, USA"
lawrence,massachusetts,42.7070354,-71.1631137,"370 Essex St, Lawrence, MA 01840, USA"
lenox,massachusetts,42.35646089999999,-73.2848762,"6 Walker St, Lenox, MA 01240, USA"
lexington,massachusetts,42.4473497,-71.2271531,"1752 Massachusetts Ave, Lexington, MA 02420, USA"
littleton common,massachusetts,42.5459251,-71.4745085,"460 King St, Littleton, MA 01460, USA"
longmeadow,massachusetts,42.0501022,-72.5828642,"Longmeadow/Chandler (1) (Flag Stop), Longmeadow, MA 01106, USA"
lynn,massachusetts,42.46676300000001,-70.9494938,"555 Essex St, Lynn, MA 01902, USA"
lynnfield,massachusetts,42.53869,-71.0465638,"60 Summer St, Lynnfield, MA 01940, USA"
mansfield center,massachusetts,42.0232397,-71.2192134,"50 West St, Mansfield, MA 02048, USA"
marblehead,massachusetts,42.49995819999999,-70.8578024,"15 Rowland St, Marblehead, MA 01945, USA"
marion center,massachusetts,41.7016673,-70.7614502,"23 Vine St, Marion, MA 02738, USA"
mattapoisett center,massachusetts,41.6637361,-70.8060491,"64 County Rd, Mattapoisett, MA 02739, USA"
melrose,massachusetts,42.4584292,-71.0661633,"155 Myrtle St, Melrose, MA 02176, USA"
milton,massachusetts,42.2495321,-71.0661653,"64 Lodge St, Milton, MA 02186, USA"
nahant,massachusetts,42.4265633,-70.922279,"257 Nahant Rd, Nahant, MA 01908, USA"
needham,massachusetts,42.2809285,-71.23775479999999,"1027 Great Plain Ave, Needham, MA 02492, USA"
new bedford,massachusetts,41.6362152,-70.93420499999999,"44-68 Cedar St, New Bedford, MA 02740, USA"
newburyport,massachusetts,42.8125913,-70.87727509999999,"16 Strong St, Newburyport, MA 01950, USA"
newton,massachusetts,42.3370413,-71.20922139999999,"1000 Commonwealth Avenue, Newton, MA 02459, USA"
northborough,massachusetts,42.3195556,-71.6411997,"20 Main St, Northborough, MA 01532, USA"
orleans,massachusetts,41.7898354,-69.9897323,"179 Route MA-6, Orleans, MA 02653, United States"
